,CodigoEstacion,NombreEstacion,Latitud,Longitud,Altitud,Categoria,Entidad,AreaOperativa,Departamento,Municipio,FechaInstalacion,FechaSuspension,IdParametro,Etiqueta,DescripcionSerie,Frecuencia,Fecha,Valor,Grado,Calificador,NivelAprobacion,SatValue,SatDesc
238,21201920,ALTO SAN MIGUEL [21201920],4.449666667,-74.29972222,2750,Pluviométrica,INSTITUTO DE HIDROLOGIA METEOROLOGIA Y ESTUDIOS AMBIENTALES,Area Operativa 11 - Cundinamarca-Amazonas,Cundinamarca,Sibaté,1993-05-15,,PRECIPITACION,PTPM_TT_M,Precipitación total mensual,Mensual,1996-12-01,62.0,50,,900,90.93524,chirps-v2.0.1996.12.tif
840,35060200,AMOLADERO EL [35060200],4.857972222,-73.74538889,2963,Pluviométrica,INSTITUTO DE HIDROLOGIA METEOROLOGIA Y ESTUDIOS AMBIENTALES,Area Operativa 11 - Cundinamarca-Amazonas,Cundinamarca,Guatavita,1972-04-15,,PRECIPITACION,PTPM_TT_M,Precipitación total mensual,Mensual,1996-12-01,80.4,50,,900,64.76798,chirps-v2.0.1996.12.tif
1244,21201790,ARGENTINA  [21201790],4.75,-74.51666667,1150,Pluviográfica,CORPORACION AUTONOMA REGIONAL DE CUNDINAMARCA,Area Operativa 10 - Tolima,Cundinamarca,Quipile,1989-04-15,,PRECIPITACION,PTPM_TT_M,Precipitación total mensual,Mensual,1996-12-01,0.0,50,,900,97.252884,chirps-v2.0.1996.12.tif
1621,21230090,ARRANCAPLUMAS [21230090],5.20275,-74.72927778,235,Pluviométrica,INSTITUTO DE HIDROLOGIA METEOROLOGIA Y ESTUDIOS AMBIENTALES,Area Operativa 10 - Tolima,Cundinamarca,Guaduas,1980-04-15,,PRECIPITACION,PTPM_TT_M,Precipitación total mensual,Mensual,1996-12-01,51.0,50,,1200,103.984,chirps-v2.0.1996.12.tif
2479,21205770,BASE AEREA MADRID [21205770],4.728805556,-74.2725,2550,Climática Ordinaria,INSTITUTO DE HIDROLOGIA METEOROLOGIA Y ESTUDIOS AMBIENTALES,Area Operativa 11 - Cundinamarca-Amazonas,Cundinamarca,Madrid,1974-07-15,,PRECIPITACION,PTPM_TT_M,Precipitación total mensual,Mensual,1996-12-01,19.6,50,,900,57.905327,chirps-v2.0.1996.12.tif
3172,21230120,BELLEZA LA [21230120],4.985388889,-74.58111111,1200,Pluviométrica,INSTITUTO DE HIDROLOGIA METEOROLOGIA Y ESTUDIOS AMBIENTALES,Area Operativa 11 - Cundinamarca-Amazonas,Cundinamarca,Chaguaní,1986-12-15,,PRECIPITACION,PTPM_TT_M,Precipitación total mensual,Mensual,1996-12-01,82.8,50,,900,89.02333,chirps-v2.0.1996.12.tif
4320,21195120,ITA VALSALICE  - AUT [21195120],4.39292,-74.39272,1421,Climática Principal,INSTITUTO DE HIDROLOGIA METEOROLOGIA Y ESTUDIOS AMBIENTALES,Area Operativa 11 - Cundinamarca-Amazonas,Cundinamarca,Silvania,1989-02-15,,PRECIPITACION,PTPM_TT_M,Precipitación total mensual,Mensual,1996-12-01,112.3,4,,900,95.08456,chirps-v2.0.1996.12.tif
4848,21235010,JERUSALEN [21235010],4.561805556,-74.70238889,297,Climática Ordinaria,INSTITUTO DE HIDROLOGIA METEOROLOGIA Y ESTUDIOS AMBIENTALES,Area Operativa 10 - Tolima,Cundinamarca,Jerusalén,1974-11-15,,PRECIPITACION,PTPM_TT_M,Precipitación total mensual,Mensual,1996-12-01,41.3,50,,1200,95.03107,chirps-v2.0.1996.12.tif
5578,35060050,JUNIN [35060050],4.792222222,-73.66872222,2323,Pluviométrica,INSTITUTO DE HIDROLOGIA METEOROLOGIA Y ESTUDIOS AMBIENTALES,Area Operativa 11 - Cundinamarca-Amazonas,Cundinamarca,Junín,1962-05-15,,PRECIPITACION,PTPM_TT_M,Precipitación total mensual,Mensual,1996-12-01,59.8,4,,900,69.342964,chirps-v2.0.1996.12.tif
6323,24015110,LA BOYERA - AUT [24015110],5.303805556,-73.85175,2610,Climática Principal,INSTITUTO DE HIDROLOGIA METEOROLOGIA Y ESTUDIOS AMBIENTALES,Area Operativa 11 - Cundinamarca-Amazonas,Cundinamarca,Ubaté,1960-03-15,,PRECIPITACION,PTPM_TT_M,Precipitación total mensual,Mensual,1996-12-01,61.5,50,,900,60.67375,chirps-v2.0.1996.12.tif
6483,21205910,LA COSECHA - AUT [21205910],4.98922,-74.00119,2570,Climática Principal,INSTITUTO DE HIDROLOGIA METEOROLOGIA Y ESTUDIOS AMBIENTALES,Area Operativa 11 - Cundinamarca-Amazonas,Cundinamarca,Zipaquirá,1976-09-15,,PRECIPITACION,PTPM_TT_M,Precipitación total mensual,Mensual,1996-12-01,27.8,50,,900,59.95822,chirps-v2.0.1996.12.tif
6960,21201840,LAG DEL INDIO  [21201840],4.4,-74.46666667,2050,Pluviométrica,CORPORACION AUTONOMA REGIONAL DE CUNDINAMARCA,Area Operativa 10 - Tolima,Cundinamarca,Viotá,1989-04-15,,PRECIPITACION,PTPM_TT_M,Precipitación total mensual,Mensual,1996-12-01,0.0,50,,900,89.03863,chirps-v2.0.1996.12.tif
7833,35020380,LAGUNA MARRANOS  [35020380],4.65,-73.83333333,3090,Pluviométrica,EMPRESA DE ACUEDUCTO Y ALCANTARILLADO DE BOGOTA E.S.P,Area Operativa 11 - Cundinamarca-Amazonas,Cundinamarca,La Calera,1979-08-15,,PRECIPITACION,PTPM_TT_M,Precipitación total mensual,Mensual,1996-12-01,26.9,50,,900,65.08957,chirps-v2.0.1996.12.tif
8344,21201190,LAGUNITAS [21201190],5.214527778,-73.90725,3100,Pluviométrica,INSTITUTO DE HIDROLOGIA METEOROLOGIA Y ESTUDIOS AMBIENTALES,Area Operativa 11 - Cundinamarca-Amazonas,Cundinamarca,Tausa,1985-03-15,,PRECIPITACION,PTPM_TT_M,Precipitación total mensual,Mensual,1996-12-01,79.3,50,,900,53.921124,chirps-v2.0.1996.12.tif
8782,35030080,LAS CASAS [35030080],4.441166667,-73.93638889,2100,Pluviográfica,INSTITUTO DE HIDROLOGIA METEOROLOGIA Y ESTUDIOS AMBIENTALES,Area Operativa 11 - Cundinamarca-Amazonas,Cundinamarca,Cáqueza,1986-05-15,,PRECIPITACION,PTPM_TT_M,Precipitación total mensual,Mensual,1996-12-01,64.4,50,,900,76.25726,chirps-v2.0.1996.12.tif
9359,24010070,LETICIA [24010070],5.303194444,-73.70975,2650,Pluviométrica,INSTITUTO DE HIDROLOGIA METEOROLOGIA Y ESTUDIOS AMBIENTALES,Area Operativa 11 - Cundinamarca-Amazonas,Cundinamarca,Lenguazaque,1974-02-15,,PRECIPITACION,PTPM_TT_M,Precipitación total mensual,Mensual,1996-12-01,130.1,50,,900,53.932495,chirps-v2.0.1996.12.tif
9810,35025050,LLANO LARGO [35025050],4.482833333,-74.03027778,2980,Climática Ordinaria,INSTITUTO DE HIDROLOGIA METEOROLOGIA Y ESTUDIOS AMBIENTALES,Area Operativa 11 - Cundinamarca-Amazonas,Cundinamarca,Ubaque,1986-04-15,,PRECIPITACION,PTPM_TT_M,Precipitación total mensual,Mensual,1996-12-01,82.6,50,,900,71.38927,chirps-v2.0.1996.12.tif
10863,35070230,MACHETA GRANJA AGROP [35070230],5.075111111,-73.57941667,1815,Pluviográfica,INSTITUTO DE HIDROLOGIA METEOROLOGIA Y ESTUDIOS AMBIENTALES,Area Operativa 11 - Cundinamarca-Amazonas,Cundinamarca,Machetá,1979-12-15,,PRECIPITACION,PTPM_TT_M,Precipitación total mensual,Mensual,1996-12-01,44.9,50,,900,29.726238,chirps-v2.0.1996.12.tif
12119,21205660,MERCEDES - AUT [21205660],4.5791,-74.52318,765,Climática Principal,INSTITUTO DE HIDROLOGIA METEOROLOGIA Y ESTUDIOS AMBIENTALES,Area Operativa 11 - Cundinamarca-Amazonas,Cundinamarca,Anapoima,1970-09-15,,PRECIPITACION,PTPM_TT_M,Precipitación total mensual,Mensual,1996-12-01,42.2,50,,900,90.16732,chirps-v2.0.1996.12.tif
13169,35060130,MINAS LAS [35060130],4.675166667,-73.48213889,23,Pluviométrica,INSTITUTO DE HIDROLOGIA METEOROLOGIA Y ESTUDIOS AMBIENTALES,Area Operativa 11 - Cundinamarca-Amazonas,Cundinamarca,Gachalá,1973-04-15,,PRECIPITACION,PTPM_TT_M,Precipitación total mensual,Mensual,1996-12-01,128.0,50,,900,112.98753,chirps-v2.0.1996.12.tif
14224,35020010,MONTERREDONDO [35020010],4.2483,-73.8187,1467,Pluviométrica,INSTITUTO DE HIDROLOGIA METEOROLOGIA Y ESTUDIOS AMBIENTALES,Area Operativa 03 - Meta-Guaviare-Guainía,Cundinamarca,Guayabetal,1951-07-15,,PRECIPITACION,PTPM_TT_M,Precipitación total mensual,Mensual,1996-12-01,112.0,50,,1200,150.12047,chirps-v2.0.1996.12.tif
15153,35020390,MUNDONUEVO  [35020390],4.683333333,-73.86666667,2400,Pluviométrica,EMPRESA DE ACUEDUCTO Y ALCANTARILLADO DE BOGOTA E.S.P,Area Operativa 11 - Cundinamarca-Amazonas,Cundinamarca,La Calera,1971-01-15,,PRECIPITACION,PTPM_TT_M,Precipitación total mensual,Mensual,1996-12-01,53.8,50,,900,83.8186,chirps-v2.0.1996.12.tif
15519,21230110,NARINO RADIO [21230110],4.387805556,-74.838166667,262,Pluviométrica,INSTITUTO DE HIDROLOGIA METEOROLOGIA Y ESTUDIOS AMBIENTALES,Area Operativa 10 - Tolima,Cundinamarca,Nariño,1980-01-15,,PRECIPITACION,PTPM_TT_M,Precipitación total mensual,Mensual,1996-12-01,64.0,50,,900,58.188282,chirps-v2.0.1996.12.tif
16090,21230060,NARINO [21230060],4.398611111,-74.82555556,289,Pluviométrica,INSTITUTO DE HIDROLOGIA METEOROLOGIA Y ESTUDIOS AMBIENTALES,Area Operativa 10 - Tolima,Cundinamarca,Nariño,1974-11-15,,PRECIPITACION,PTPM_TT_M,Precipitación total mensual,Mensual,1996-12-01,38.3,4,,1200,58.188282,chirps-v2.0.1996.12.tif
16691,21190210,NILO [21190210],4.305888889,-74.64866667,322,Pluviométrica,INSTITUTO DE HIDROLOGIA METEOROLOGIA Y ESTUDIOS AMBIENTALES,Area Operativa 10 - Tolima,Cundinamarca,Nilo,1971-11-15,,PRECIPITACION,PTPM_TT_M,Precipitación total mensual,Mensual,1996-12-01,102.5,50,,1200,87.581436,chirps-v2.0.1996.12.tif
17661,21200160,PANONIA [21200160],5.057972222,-73.73433333,2800,Pluviométrica,INSTITUTO DE HIDROLOGIA METEOROLOGIA Y ESTUDIOS AMBIENTALES,Area Operativa 11 - Cundinamarca-Amazonas,Cundinamarca,Chocontá,1985-03-15,,PRECIPITACION,PTPM_TT_M,Precipitación total mensual,Mensual,1996-12-01,44.1,50,,900,42.019867,chirps-v2.0.1996.12.tif
18599,21201060,PANTANO REDONDO 1 [21201060],5.04325,-74.03338889,3160,Pluviográfica,INSTITUTO DE HIDROLOGIA METEOROLOGIA Y ESTUDIOS AMBIENTALES,Area Operativa 11 - Cundinamarca-Amazonas,Cundinamarca,Zipaquirá,1951-01-15,,PRECIPITACION,PTPM_TT_M,Precipitación total mensual,Mensual,1996-12-01,87.7,50,,900,59.49702,chirps-v2.0.1996.12.tif
20004,35030230,PARRADOS SAN ISIDR  [35030230],4.383333333,-73.76666667,3500,Pluviométrica,EMPRESA DE ACUEDUCTO Y ALCANTARILLADO DE BOGOTA E.S.P,Area Operativa 11 - Cundinamarca-Amazonas,Cundinamarca,Fómeque,1987-05-15,,PRECIPITACION,PTPM_TT_M,Precipitación total mensual,Mensual,1996-12-01,136.6,50,,900,82.32776,chirps-v2.0.1996.12.tif
20503,21195190,PASCA - AUT [21195190],4.310111111,-74.31175,2256,Agrometeorológica,INSTITUTO DE HIDROLOGIA METEOROLOGIA Y ESTUDIOS AMBIENTALES,Area Operativa 11 - Cundinamarca-Amazonas,Cundinamarca,Pasca,2005-08-26,,PRECIPITACION,PTPM_TT_M,Precipitación total mensual,Mensual,1996-12-01,51.8,50,,900,75.196045,chirps-v2.0.1996.12.tif
21369,23060180,PENON EL [23060180],5.253444444,-74.2945,1400,Pluviométrica,INSTITUTO DE HIDROLOGIA METEOROLOGIA Y ESTUDIOS AMBIENTALES,Area Operativa 11 - Cundinamarca-Amazonas,Cundinamarca,El Peñón,1974-09-15,,PRECIPITACION,PTPM_TT_M,Precipitación total mensual,Mensual,1996-12-01,118.2,50,,900,126.219345,chirps-v2.0.1996.12.tif
22034,21190310,PINAR EL [21190310],4.387972222,-74.32991667,1900,Pluviométrica,INSTITUTO DE HIDROLOGIA METEOROLOGIA Y ESTUDIOS AMBIENTALES,Area Operativa 11 - Cundinamarca-Amazonas,Cundinamarca,Fusagasugá,1980-08-15,,PRECIPITACION,PTPM_TT_M,Precipitación total mensual,Mensual,1996-12-01,83.6,50,,900,51.494972,chirps-v2.0.1996.12.tif
23023,21200620,PISCIS [21200620],5.079166667,-73.69686111,2820,Pluviométrica,INSTITUTO DE HIDROLOGIA METEOROLOGIA Y ESTUDIOS AMBIENTALES,Area Operativa 11 - Cundinamarca-Amazonas,Cundinamarca,Chocontá,1985-03-15,,PRECIPITACION,PTPM_TT_M,Precipitación total mensual,Mensual,1996-12-01,47.1,50,,900,37.78798,chirps-v2.0.1996.12.tif
24165,35060160,POTRERITOS [35060160],4.828805556,-73.76927778,2802,Pluviométrica,INSTITUTO DE HIDROLOGIA METEOROLOGIA Y ESTUDIOS AMBIENTALES,Area Operativa 11 - Cundinamarca-Amazonas,Cundinamarca,Guatavita,1972-08-15,,PRECIPITACION,PTPM_TT_M,Precipitación total mensual,Mensual,1996-12-01,83.8,50,,900,45.38179,chirps-v2.0.1996.12.tif
24607,21200780,POTRERO LARGO [21200780],4.929222222,-73.78047222,2780,Pluviométrica,INSTITUTO DE HIDROLOGIA METEOROLOGIA Y ESTUDIOS AMBIENTALES,Area Operativa 11 - Cundinamarca-Amazonas,Cundinamarca,Guatavita,1985-03-15,,PRECIPITACION,PTPM_TT_M,Precipitación total mensual,Mensual,1996-12-01,56.5,50,,900,39.040504,chirps-v2.0.1996.12.tif
25468,21201310,PREVENTORIO INFANT [21201310],4.465444444,-74.2675,2650,Pluviométrica,INSTITUTO DE HIDROLOGIA METEOROLOGIA Y ESTUDIOS AMBIENTALES,Area Operativa 11 - Cundinamarca-Amazonas,Cundinamarca,Sibaté,1985-03-15,,PRECIPITACION,PTPM_TT_M,Precipitación total mensual,Mensual,1996-12-01,26.0,50,,900,63.412872,chirps-v2.0.1996.12.tif
25879,21206180,PRIMAVERA D MATIMA [21206180],4.8055,-74.44347222,1850,Climática Ordinaria,INSTITUTO DE HIDROLOGIA METEOROLOGIA Y ESTUDIOS AMBIENTALES,Area Operativa 11 - Cundinamarca-Amazonas,Cundinamarca,Anolaima,1986-04-15,,PRECIPITACION,PTPM_TT_M,Precipitación total mensual,Mensual,1996-12-01,54.1,50,,900,79.55732,chirps-v2.0.1996.12.tif
26563,21205570,PRIMAVERA LA  [21205570],4.85,-74.21666667,2590,Climática Principal,CORPORACION AUTONOMA REGIONAL DE CUNDINAMARCA,Area Operativa 11 - Cundinamarca-Amazonas,Cundinamarca,Subachoque,1965-06-15,,PRECIPITACION,PTPM_TT_M,Precipitación total mensual,Mensual,1996-12-01,49.3,50,,900,84.122116,chirps-v2.0.1996.12.tif
26756,21205980,PROVIDENCIA GRANJA [21205980],4.792388889,-74.20091667,2560,Climática Ordinaria,INSTITUTO DE HIDROLOGIA METEOROLOGIA Y ESTUDIOS AMBIENTALES,Area Operativa 11 - Cundinamarca-Amazonas,Cundinamarca,Tenjo,1977-02-15,,PRECIPITACION,PTPM_TT_M,Precipitación total mensual,Mensual,1996-12-01,38.6,50,,900,57.10281,chirps-v2.0.1996.12.tif
27472,24010380,PTE EL  [24010380],5.35,-73.66666667,2810,Pluviográfica,CORPORACION AUTONOMA REGIONAL DE CUNDINAMARCA,Area Operativa 11 - Cundinamarca-Amazonas,Cundinamarca,Guachetá,1962-12-15,,PRECIPITACION,PTPM_TT_M,Precipitación total mensual,Mensual,1996-12-01,0.0,50,,900,89.385,chirps-v2.0.1996.12.tif
28351,21205160,RAMADA LA  [21205160],4.716666667,-74.18333333,2545,Climática Ordinaria,CORPORACION AUTONOMA REGIONAL DE CUNDINAMARCA,Area Operativa 11 - Cundinamarca-Amazonas,Cundinamarca,Funza,1937-12-15,,PRECIPITACION,PTPM_TT_M,Precipitación total mensual,Mensual,1996-12-01,26.1,50,,900,47.353676,chirps-v2.0.1996.12.tif
29035,21205410,REPRESA DEL NEUSA  [21205410],5.15,-73.98333333,3100,Climática Principal,CORPORACION AUTONOMA REGIONAL DE CUNDINAMARCA,Area Operativa 11 - Cundinamarca-Amazonas,Cundinamarca,Cogua,1947-05-15,,PRECIPITACION,PTPM_TT_M,Precipitación total mensual,Mensual,1996-12-01,72.3,50,,900,58.84214,chirps-v2.0.1996.12.tif
30031,21205390,REPRESA SISGA  [21205390],5.083333333,-73.73333333,2675,Climática Ordinaria,CORPORACION AUTONOMA REGIONAL DE CUNDINAMARCA,Area Operativa 11 - Cundinamarca-Amazonas,Cundinamarca,Chocontá,1939-11-15,,PRECIPITACION,PTPM_TT_M,Precipitación total mensual,Mensual,1996-12-01,45.5,50,,900,42.019867,chirps-v2.0.1996.12.tif
30083,21206590,REPRESA SISGA  [21206590],5.083333333,-73.73333333,2675,Climática Ordinaria,CORPORACION AUTONOMA REGIONAL DE CUNDINAMARCA,Area Operativa 11 - Cundinamarca-Amazonas,Cundinamarca,Chocontá,1952-12-15,,PRECIPITACION,PTPM_TT_M,Precipitación total mensual,Mensual,1996-12-01,44.8,50,,900,42.019867,chirps-v2.0.1996.12.tif
30363,21201550,ROBLE EL [21201550],4.796666667,-74.22638889,2560,Pluviométrica,INSTITUTO DE HIDROLOGIA METEOROLOGIA Y ESTUDIOS AMBIENTALES,Area Operativa 11 - Cundinamarca-Amazonas,Cundinamarca,Madrid,1985-07-15,,PRECIPITACION,PTPM_TT_M,Precipitación total mensual,Mensual,1996-12-01,55.7,50,,900,57.10281,chirps-v2.0.1996.12.tif
30844,23065100,SABANETA [23065100],4.90175,-74.30738889,2475,Climática Ordinaria,INSTITUTO DE HIDROLOGIA METEOROLOGIA Y ESTUDIOS AMBIENTALES,Area Operativa 11 - Cundinamarca-Amazonas,Cundinamarca, La Vega,1986-08-15,,PRECIPITACION,PTPM_TT_M,Precipitación total mensual,Mensual,1996-12-01,121.3,4,,900,112.220726,chirps-v2.0.1996.12.tif
31439,21200880,SALITRE EL - NEUSA  [21200880],5.183333333,-74.0,3140,Pluviográfica,CORPORACION AUTONOMA REGIONAL DE CUNDINAMARCA,Area Operativa 11 - Cundinamarca-Amazonas,Cundinamarca,Tausa,1955-04-15,,PRECIPITACION,PTPM_TT_M,Precipitación total mensual,Mensual,1996-12-01,51.0,50,,900,89.62986,chirps-v2.0.1996.12.tif
31930,23125070,SAN CAYETANO [23125070],5.3,-74.06666667,2200,Climática Ordinaria,INSTITUTO DE HIDROLOGIA METEOROLOGIA Y ESTUDIOS AMBIENTALES,Area Operativa 11 - Cundinamarca-Amazonas,Cundinamarca,San Cayetano,1974-09-15,2008-12-11 00:00:00,PRECIPITACION,PTPM_TT_M,Precipitación total mensual,Mensual,1996-12-01,136.2,50,,900,122.65004,chirps-v2.0.1996.12.tif
32053,21201800,SAN GREGORIO  [21201800],4.683333333,-74.5,1050,Pluviográfica,CORPORACION AUTONOMA REGIONAL DE CUNDINAMARCA,Area Operativa 11 - Cundinamarca-Amazonas,Cundinamarca,Cachipay,1989-02-15,,PRECIPITACION,PTPM_TT_M,Precipitación total mensual,Mensual,1996-12-01,79.6,50,,900,98.38051,chirps-v2.0.1996.12.tif
32349,21201610,SAN ISIDRO [21201610],4.850288889,-73.89072222,2698,Pluviométrica,INSTITUTO DE HIDROLOGIA METEOROLOGIA Y ESTUDIOS AMBIENTALES,Area Operativa 11 - Cundinamarca-Amazonas,Cundinamarca,Guasca,1987-05-15,,PRECIPITACION,PTPM_TT_M,Precipitación total mensual,Mensual,1996-12-01,45.0,50,,900,57.997303,chirps-v2.0.1996.12.tif
33026,21201720,SAN JORGE GJA  [21201720],4.516666667,-74.2,2890,Pluviográfica,CORPORACION AUTONOMA REGIONAL DE CUNDINAMARCA,Area Operativa 11 - Cundinamarca-Amazonas,Cundinamarca,Soacha,1960-04-15,,PRECIPITACION,PTPM_TT_M,Precipitación total mensual,Mensual,1996-12-01,29.2,50,,900,60.065636,chirps-v2.0.1996.12.tif
33623,21205720,SAN JORGE GRANJA [21205720],4.50575,-74.18927778,2900,Climática Ordinaria,INSTITUTO DE HIDROLOGIA METEOROLOGIA Y ESTUDIOS AMBIENTALES,Area Operativa 11 - Cundinamarca-Amazonas,Cundinamarca,Soacha,1960-04-15,,PRECIPITACION,PTPM_TT_M,Precipitación total mensual,Mensual,1996-12-01,52.6,50,,900,46.896923,chirps-v2.0.1996.12.tif
34324,21200800,SAN JOSE  [21200800],4.983333333,-73.9,2700,Pluviográfica,CORPORACION AUTONOMA REGIONAL DE CUNDINAMARCA,Area Operativa 11 - Cundinamarca-Amazonas,Cundinamarca,Guasca,1960-10-15,,PRECIPITACION,PTPM_TT_M,Precipitación total mensual,Mensual,1996-12-01,43.3,50,,900,63.991383,chirps-v2.0.1996.12.tif
34997,21230070,SAN JUAN D RIOSECO [21230070],4.851277778,-74.62283333,1364,Pluviométrica,INSTITUTO DE HIDROLOGIA METEOROLOGIA Y ESTUDIOS AMBIENTALES,Area Operativa 10 - Tolima,Cundinamarca,San Juan De Rioseco,1974-12-15,,PRECIPITACION,PTPM_TT_M,Precipitación total mensual,Mensual,1996-12-01,91.4,50,,1200,93.49196,chirps-v2.0.1996.12.tif
36003,35030260,SAN LUIS  [35030260],4.483333333,-73.65,2959,Pluviométrica,EMPRESA DE ACUEDUCTO Y ALCANTARILLADO DE BOGOTA E.S.P,Area Operativa 11 - Cundinamarca-Amazonas,Cundinamarca,Fómeque,1990-08-15,,PRECIPITACION,PTPM_TT_M,Precipitación total mensual,Mensual,1996-12-01,120.6,50,,900,108.52632,chirps-v2.0.1996.12.tif
36373,21201250,SAN PEDRO [21201250],4.871638889,-73.96666667,2560,Pluviométrica,INSTITUTO DE HIDROLOGIA METEOROLOGIA Y ESTUDIOS AMBIENTALES,Area Operativa 11 - Cundinamarca-Amazonas,Cundinamarca,Sopó,1980-06-15,2013-02-15 00:00:00,PRECIPITACION,PTPM_TT_M,Precipitación total mensual,Mensual,1996-12-01,53.6,50,,900,43.873085,chirps-v2.0.1996.12.tif
37285,21200110,SAN RAFAEL 1  [21200110],4.7,-73.98333333,2750,Pluviométrica,EMPRESA DE ACUEDUCTO Y ALCANTARILLADO DE BOGOTA E.S.P,Area Operativa 11 - Cundinamarca-Amazonas,Cundinamarca,La Calera,1933-05-15,,PRECIPITACION,PTPM_TT_M,Precipitación total mensual,Mensual,1996-12-01,49.7,50,,900,57.00101,chirps-v2.0.1996.12.tif
38823,35025060,BOLSA LA [35025060],4.575416667,-73.98141667,3195,Climática Ordinaria,INSTITUTO DE HIDROLOGIA METEOROLOGIA Y ESTUDIOS AMBIENTALES,Area Operativa 11 - Cundinamarca-Amazonas,Cundinamarca,Choachí,1987-05-15,,PRECIPITACION,PTPM_TT_M,Precipitación total mensual,Mensual,1996-12-01,64.4,50,,900,67.58319,chirps-v2.0.1996.12.tif
39781,23065120,CABRERA LA AUT [23065120],5.141555556,-74.13936111,20,Climática Principal,INSTITUTO DE HIDROLOGIA METEOROLOGIA Y ESTUDIOS AMBIENTALES,Area Operativa 11 - Cundinamarca-Amazonas,Cundinamarca,Pacho,1974-09-15,,PRECIPITACION,PTPM_TT_M,Precipitación total mensual,Mensual,1996-12-01,105.0,50,,900,104.085464,chirps-v2.0.1996.12.tif
40349,21201650,SANTA ROSITA [21201650],5.115916667,-73.75738889,2750,Pluviométrica,INSTITUTO DE HIDROLOGIA METEOROLOGIA Y ESTUDIOS AMBIENTALES,Area Operativa 11 - Cundinamarca-Amazonas,Cundinamarca,Suesca,1988-08-15,,PRECIPITACION,PTPM_TT_M,Precipitación total mensual,Mensual,1996-12-01,46.7,50,,900,47.311577,chirps-v2.0.1996.12.tif
40754,23065060,SANTA TERESA [23065060],4.842166667,-74.46169444,2200,Climática Ordinaria,INSTITUTO DE HIDROLOGIA METEOROLOGIA Y ESTUDIOS AMBIENTALES,Area Operativa 11 - Cundinamarca-Amazonas,Cundinamarca,Guayabal De Síquima,1988-12-15,,PRECIPITACION,PTPM_TT_M,Precipitación total mensual,Mensual,1996-12-01,128.4,50,,900,110.8487,chirps-v2.0.1996.12.tif
41482,21200270,SAUCIO  [21200270],5.108833333,-73.70627778,2640,Pluviográfica,CORPORACION AUTONOMA REGIONAL DE CUNDINAMARCA,Area Operativa 11 - Cundinamarca-Amazonas,Cundinamarca,Chocontá,1947-06-15,,PRECIPITACION,PTPM_TT_M,Precipitación total mensual,Mensual,1996-12-01,35.6,50,,900,43.60053,chirps-v2.0.1996.12.tif
42374,21200510,SIBATE APOSTOLICA  [21200510],4.516666667,-74.25,2618,Pluviográfica,CORPORACION AUTONOMA REGIONAL DE CUNDINAMARCA,Area Operativa 11 - Cundinamarca-Amazonas,Cundinamarca,Sibaté,1956-05-15,,PRECIPITACION,PTPM_TT_M,Precipitación total mensual,Mensual,1996-12-01,32.1,50,,900,64.040344,chirps-v2.0.1996.12.tif
42670,23060290,SILENCIO EL [23060290],4.973166667,-74.41205556,1425,Pluviométrica,INSTITUTO DE HIDROLOGIA METEOROLOGIA Y ESTUDIOS AMBIENTALES,Area Operativa 11 - Cundinamarca-Amazonas,Cundinamarca,Sasaima,1986-03-15,,PRECIPITACION,PTPM_TT_M,Precipitación total mensual,Mensual,1996-12-01,137.9,50,,900,102.18198,chirps-v2.0.1996.12.tif
43234,21205740,SILOS [21205740],5.117722222,-73.70141667,2709,Climática Ordinaria,INSTITUTO DE HIDROLOGIA METEOROLOGIA Y ESTUDIOS AMBIENTALES,Area Operativa 11 - Cundinamarca-Amazonas,Cundinamarca,Chocontá,1974-03-15,,PRECIPITACION,PTPM_TT_M,Precipitación total mensual,Mensual,1996-12-01,44.3,50,,900,43.60053,chirps-v2.0.1996.12.tif
43950,21201360,STA INES  [21201360],4.816666667,-74.13333333,2550,Pluviométrica,CORPORACION AUTONOMA REGIONAL DE CUNDINAMARCA,Area Operativa 11 - Cundinamarca-Amazonas,Cundinamarca,Tenjo,1980-03-15,,PRECIPITACION,PTPM_TT_M,Precipitación total mensual,Mensual,1996-12-01,43.0,50,,900,57.454815,chirps-v2.0.1996.12.tif
44424,21201760,STA ISABEL  [21201760],4.983333333,-74.06666667,2680,Pluviométrica,CORPORACION AUTONOMA REGIONAL DE CUNDINAMARCA,Area Operativa 11 - Cundinamarca-Amazonas,Cundinamarca,Tabio,1968-05-15,,PRECIPITACION,PTPM_TT_M,Precipitación total mensual,Mensual,1996-12-01,45.4,50,,900,59.329044,chirps-v2.0.1996.12.tif
44797,21201030,STA TERESA  [21201030],4.666666667,-73.93333333,3080,Pluviográfica,CORPORACION AUTONOMA REGIONAL DE CUNDINAMARCA,Area Operativa 11 - Cundinamarca-Amazonas,Cundinamarca,La Calera,1970-09-15,,PRECIPITACION,PTPM_TT_M,Precipitación total mensual,Mensual,1996-12-01,61.0,50,,900,82.40081,chirps-v2.0.1996.12.tif
45091,21201620,SUESCA [21201620],5.109583333,-73.79697222,2575,Pluviométrica,INSTITUTO DE HIDROLOGIA METEOROLOGIA Y ESTUDIOS AMBIENTALES,Area Operativa 11 - Cundinamarca-Amazonas,Cundinamarca,Suesca,1987-05-15,2019-05-03 14:59:00,PRECIPITACION,PTPM_TT_M,Precipitación total mensual,Mensual,1996-12-01,48.5,50,,900,47.311577,chirps-v2.0.1996.12.tif
45521,35060020,SUEVA [35060020],4.81,-73.70716667,1965,Pluviométrica,INSTITUTO DE HIDROLOGIA METEOROLOGIA Y ESTUDIOS AMBIENTALES,Area Operativa 11 - Cundinamarca-Amazonas,Cundinamarca,Junín,1972-07-15,,PRECIPITACION,PTPM_TT_M,Precipitación total mensual,Mensual,1996-12-01,32.3,50,,900,56.956696,chirps-v2.0.1996.12.tif
46053,23060200,SUPATA [23060200],5.059694444,-74.239166667,1798,Pluviométrica,INSTITUTO DE HIDROLOGIA METEOROLOGIA Y ESTUDIOS AMBIENTALES,Area Operativa 11 - Cundinamarca-Amazonas,Cundinamarca,Supata,1974-09-15,,PRECIPITACION,PTPM_TT_M,Precipitación total mensual,Mensual,1996-12-01,98.5,50,,900,79.17307,chirps-v2.0.1996.12.tif
46743,24015210,SUTATAUSA  [24015210],5.25,-73.85,2700,Climática Ordinaria,CORPORACION AUTONOMA REGIONAL DE CUNDINAMARCA,Area Operativa 11 - Cundinamarca-Amazonas,Cundinamarca,Sutatausa,1965-04-15,,PRECIPITACION,PTPM_TT_M,Precipitación total mensual,Mensual,1996-12-01,75.0,50,,900,54.567493,chirps-v2.0.1996.12.tif
47148,21205650,TABIO  [21205650],4.766666667,-73.93333333,2620,Climática Principal,CORPORACION AUTONOMA REGIONAL DE CUNDINAMARCA,Area Operativa 11 - Cundinamarca-Amazonas,Cundinamarca,Tabio,1970-07-15,,PRECIPITACION,PTPM_TT_M,Precipitación total mensual,Mensual,1996-12-01,80.9,50,,900,65.449135,chirps-v2.0.1996.12.tif
47395,21201630,TABIO GRANJA [21201630],4.933055556,-74.06561111,2600,Pluviográfica,INSTITUTO DE HIDROLOGIA METEOROLOGIA Y ESTUDIOS AMBIENTALES,Area Operativa 11 - Cundinamarca-Amazonas,Cundinamarca,Tabio,1987-05-15,,PRECIPITACION,PTPM_TT_M,Precipitación total mensual,Mensual,1996-12-01,97.2,50,,900,54.795628,chirps-v2.0.1996.12.tif
48085,24010280,TAPIAS  [24010280],5.3,-73.71666667,2585,Pluviográfica,CORPORACION AUTONOMA REGIONAL DE CUNDINAMARCA,Area Operativa 11 - Cundinamarca-Amazonas,Cundinamarca,Lenguazaque,1960-03-15,,PRECIPITACION,PTPM_TT_M,Precipitación total mensual,Mensual,1996-12-01,78.7,50,,900,53.932495,chirps-v2.0.1996.12.tif
48418,35060170,TASAJERAS [35060170],4.885694444,-73.60036111,2502,Pluviométrica,INSTITUTO DE HIDROLOGIA METEOROLOGIA Y ESTUDIOS AMBIENTALES,Area Operativa 11 - Cundinamarca-Amazonas,Cundinamarca,Gachetá,1972-02-15,,PRECIPITACION,PTPM_TT_M,Precipitación total mensual,Mensual,1996-12-01,113.2,50,,900,96.48317,chirps-v2.0.1996.12.tif
49003,35060150,TEMBLADARES [35060150],4.704861111,-73.66527778,2878,Pluviométrica,INSTITUTO DE HIDROLOGIA METEOROLOGIA Y ESTUDIOS AMBIENTALES,Area Operativa 11 - Cundinamarca-Amazonas,Cundinamarca,Junín,1972-02-15,,PRECIPITACION,PTPM_TT_M,Precipitación total mensual,Mensual,1996-12-01,208.8,50,,900,70.97395,chirps-v2.0.1996.12.tif
49649,21200690,TESORO-VERTIENTES  [21200690],4.8,-74.31666667,2610,Pluviométrica,CORPORACION AUTONOMA REGIONAL DE CUNDINAMARCA,Area Operativa 11 - Cundinamarca-Amazonas,Cundinamarca,Facatativá,1931-08-15,,PRECIPITACION,PTPM_TT_M,Precipitación total mensual,Mensual,1996-12-01,215.0,50,,900,72.3511,chirps-v2.0.1996.12.tif
50376,21190030,TIBACUY [21190030],4.348055556,-74.45447222,1635,Pluviográfica,INSTITUTO DE HIDROLOGIA METEOROLOGIA Y ESTUDIOS AMBIENTALES,Area Operativa 11 - Cundinamarca-Amazonas,Cundinamarca,Tibacuy,1986-10-15,,PRECIPITACION,PTPM_TT_M,Precipitación total mensual,Mensual,1996-12-01,93.5,50,,900,105.54603,chirps-v2.0.1996.12.tif
51189,21205420,TIBAITATA [21205420],4.691416667,-74.209,2543,Agrometeorológica,INSTITUTO DE HIDROLOGIA METEOROLOGIA Y ESTUDIOS AMBIENTALES,Area Operativa 11 - Cundinamarca-Amazonas,Cundinamarca,Mosquera,1954-03-15,,PRECIPITACION,PTPM_TT_M,Precipitación total mensual,Mensual,1996-12-01,19.5,50,,900,39.472145,chirps-v2.0.1996.12.tif
51687,21201270,TIBAR EL [21201270],4.816666667,-74.23333333,2550,Pluviométrica,INSTITUTO DE HIDROLOGIA METEOROLOGIA Y ESTUDIOS AMBIENTALES,Area Operativa 11 - Cundinamarca-Amazonas,Cundinamarca,Madrid,1980-12-15,2002-02-15 00:00:00,PRECIPITACION,PTPM_TT_M,Precipitación total mensual,Mensual,1996-12-01,35.5,50,,900,62.831764,chirps-v2.0.1996.12.tif
52172,21201100,TOCAIMA [21201100],4.466666667,-74.65,490,Pluviométrica,INSTITUTO DE HIDROLOGIA METEOROLOGIA Y ESTUDIOS AMBIENTALES,Area Operativa 11 - Cundinamarca-Amazonas,Cundinamarca,Tocaima,1974-11-15,,PRECIPITACION,PTPM_TT_M,Precipitación total mensual,Mensual,1996-12-01,32.1,50,,900,71.09571,chirps-v2.0.1996.12.tif
52938,35060230,TRES ESQUINAS [35060230],4.781416667,-73.48905556,1943,Pluviométrica,INSTITUTO DE HIDROLOGIA METEOROLOGIA Y ESTUDIOS AMBIENTALES,Area Operativa 11 - Cundinamarca-Amazonas,Cundinamarca,Ubalá,1972-02-15,,PRECIPITACION,PTPM_TT_M,Precipitación total mensual,Mensual,1996-12-01,104.0,50,,900,97.67063,chirps-v2.0.1996.12.tif
53521,21201850,TRIBUNA LA  [21201850],4.85,-74.41666667,2723,Pluviográfica,CORPORACION AUTONOMA REGIONAL DE CUNDINAMARCA,Area Operativa 11 - Cundinamarca-Amazonas,Cundinamarca,Facatativá,1992-06-15,,PRECIPITACION,PTPM_TT_M,Precipitación total mensual,Mensual,1996-12-01,116.6,50,,900,117.241394,chirps-v2.0.1996.12.tif
53971,23060140,TUSCOLO EL [23060140],5.069444444,-74.608055556,985,Pluviométrica,INSTITUTO DE HIDROLOGIA METEOROLOGIA Y ESTUDIOS AMBIENTALES,Area Operativa 11 - Cundinamarca-Amazonas,Cundinamarca,Guaduas,1971-02-15,,PRECIPITACION,PTPM_TT_M,Precipitación total mensual,Mensual,1996-12-01,115.6,50,,900,93.07883,chirps-v2.0.1996.12.tif
54683,35060180,UBALA [35060180],4.752388889,-73.52858333,1929,Pluviométrica,INSTITUTO DE HIDROLOGIA METEOROLOGIA Y ESTUDIOS AMBIENTALES,Area Operativa 11 - Cundinamarca-Amazonas,Cundinamarca,Ubalá,1959-08-15,,PRECIPITACION,PTPM_TT_M,Precipitación total mensual,Mensual,1996-12-01,119.2,50,,900,81.64633,chirps-v2.0.1996.12.tif
55103,24011090,UBATE GRANJA [24011090],5.327333333,-73.79144444,2555,Pluviográfica,INSTITUTO DE HIDROLOGIA METEOROLOGIA Y ESTUDIOS AMBIENTALES,Area Operativa 11 - Cundinamarca-Amazonas,Cundinamarca,Ubaté,1987-05-15,2010-03-31 00:00:00,PRECIPITACION,PTPM_TT_M,Precipitación total mensual,Mensual,1996-12-01,56.5,4,,900,50.57923,chirps-v2.0.1996.12.tif
55840,35020420,UNE  [35020420],4.4,-74.01666667,2430,Pluviométrica,EMPRESA DE ACUEDUCTO Y ALCANTARILLADO DE BOGOTA E.S.P,Area Operativa 11 - Cundinamarca-Amazonas,Cundinamarca,Une,1947-01-15,,PRECIPITACION,PTPM_TT_M,Precipitación total mensual,Mensual,1996-12-01,46.8,50,,900,62.84506,chirps-v2.0.1996.12.tif
56150,21201320,UNION LA [21201320],4.509361111,-74.26880556,2640,Pluviométrica,INSTITUTO DE HIDROLOGIA METEOROLOGIA Y ESTUDIOS AMBIENTALES,Area Operativa 11 - Cundinamarca-Amazonas,Cundinamarca,Sibaté,1985-03-15,,PRECIPITACION,PTPM_TT_M,Precipitación total mensual,Mensual,1996-12-01,22.0,50,,900,64.040344,chirps-v2.0.1996.12.tif
56846,21200550,UNION LA-EL ROSAL  [21200550],4.866666667,-74.25,2725,Pluviométrica,CORPORACION AUTONOMA REGIONAL DE CUNDINAMARCA,Area Operativa 11 - Cundinamarca-Amazonas,Cundinamarca,Subachoque,1960-01-15,,PRECIPITACION,PTPM_TT_M,Precipitación total mensual,Mensual,1996-12-01,107.0,50,,900,92.61106,chirps-v2.0.1996.12.tif
56990,21195140,UNIV FUSAGASUGA  [21195140],4.333333333,-74.36666667,1720,Climática Principal,CORPORACION AUTONOMA REGIONAL DE CUNDINAMARCA,Area Operativa 11 - Cundinamarca-Amazonas,Cundinamarca,Fusagasugá,1996-06-15,,PRECIPITACION,PTPM_TT_M,Precipitación total mensual,Mensual,1996-12-01,58.5,50,,900,103.470924,chirps-v2.0.1996.12.tif
57416,23060190,UTICA [23060190],5.196083333,-74.4855,497,Pluviométrica,INSTITUTO DE HIDROLOGIA METEOROLOGIA Y ESTUDIOS AMBIENTALES,Area Operativa 11 - Cundinamarca-Amazonas,Cundinamarca,Útica,1974-09-15,,PRECIPITACION,PTPM_TT_M,Precipitación total mensual,Mensual,1996-12-01,74.5,50,,900,100.053185,chirps-v2.0.1996.12.tif
58219,35060120,VEGA LA SAN JUAN [35060120],4.723305556,-73.47055556,1791,Pluviométrica,INSTITUTO DE HIDROLOGIA METEOROLOGIA Y ESTUDIOS AMBIENTALES,Area Operativa 11 - Cundinamarca-Amazonas,Cundinamarca,Gachalá,1972-02-15,,PRECIPITACION,PTPM_TT_M,Precipitación total mensual,Mensual,1996-12-01,166.4,50,,900,102.30589,chirps-v2.0.1996.12.tif
58785,21206290,VENECIA  [21206290],4.866666667,-74.41666667,2673,Climática Principal,CORPORACION AUTONOMA REGIONAL DE CUNDINAMARCA,Area Operativa 11 - Cundinamarca-Amazonas,Cundinamarca,Facatativá,1986-12-15,,PRECIPITACION,PTPM_TT_M,Precipitación total mensual,Mensual,1996-12-01,103.0,50,,900,117.241394,chirps-v2.0.1996.12.tif
59512,21200260,VENTALARGA  [21200260],5.066666667,-74.05,3062,Pluviográfica,CORPORACION AUTONOMA REGIONAL DE CUNDINAMARCA,Area Operativa 11 - Cundinamarca-Amazonas,Cundinamarca,Zipaquirá,1947-06-15,,PRECIPITACION,PTPM_TT_M,Precipitación total mensual,Mensual,1996-12-01,102.5,50,,900,76.08573,chirps-v2.0.1996.12.tif
59945,21206400,VICTORIA LA  [21206400],4.466666667,-74.6,380,Climática Principal,CORPORACION AUTONOMA REGIONAL DE CUNDINAMARCA,Area Operativa 10 - Tolima,Cundinamarca,Tocaima,1986-12-15,,PRECIPITACION,PTPM_TT_M,Precipitación total mensual,Mensual,1996-12-01,68.5,50,,900,81.95624,chirps-v2.0.1996.12.tif
60120,21205940,VILLA INES  - AUT [21205940],4.83211,-74.38056,2590,Climática Principal,INSTITUTO DE HIDROLOGIA METEOROLOGIA Y ESTUDIOS AMBIENTALES,Area Operativa 11 - Cundinamarca-Amazonas,Cundinamarca,Facatativá,1977-02-15,,PRECIPITACION,PTPM_TT_M,Precipitación total mensual,Mensual,1996-12-01,81.2,50,,900,81.20993,chirps-v2.0.1996.12.tif
60455,21201880,VILLA PAULA  [21201880],4.933333333,-74.08333333,2750,Pluviográfica,CORPORACION AUTONOMA REGIONAL DE CUNDINAMARCA,Area Operativa 11 - Cundinamarca-Amazonas,Cundinamarca,Tabio,1992-01-15,,PRECIPITACION,PTPM_TT_M,Precipitación total mensual,Mensual,1996-12-01,0.9,50,,900,54.795628,chirps-v2.0.1996.12.tif
61401,21200430,VILLAPINZON  [21200430],5.2,-73.6,2700,Pluviográfica,CORPORACION AUTONOMA REGIONAL DE CUNDINAMARCA,Area Operativa 11 - Cundinamarca-Amazonas,Cundinamarca,Villapinzón,1951-07-15,,PRECIPITACION,PTPM_TT_M,Precipitación total mensual,Mensual,1996-12-01,86.3,50,,900,46.85655,chirps-v2.0.1996.12.tif
61628,21201640,VILLAPINZON GRANJA [21201640],5.26375,-73.59086111,2745,Pluviográfica,INSTITUTO DE HIDROLOGIA METEOROLOGIA Y ESTUDIOS AMBIENTALES,Area Operativa 11 - Cundinamarca-Amazonas,Cundinamarca,Villapinzón,1987-05-15,,PRECIPITACION,PTPM_TT_M,Precipitación total mensual,Mensual,1996-12-01,81.4,50,,900,50.777706,chirps-v2.0.1996.12.tif
62493,21201090,VIOTA [21201090],4.442694444,-74.54225,567,Pluviométrica,INSTITUTO DE HIDROLOGIA METEOROLOGIA Y ESTUDIOS AMBIENTALES,Area Operativa 11 - Cundinamarca-Amazonas,Cundinamarca,Viotá,1974-11-15,,PRECIPITACION,PTPM_TT_M,Precipitación total mensual,Mensual,1996-12-01,154.0,50,,900,90.28082,chirps-v2.0.1996.12.tif
63422,21200740,ZIPAQUIRA  [21200740],5.016666667,-74.0,2655,Pluviográfica,CORPORACION AUTONOMA REGIONAL DE CUNDINAMARCA,Area Operativa 11 - Cundinamarca-Amazonas,Cundinamarca,Zipaquirá,1960-02-15,,PRECIPITACION,PTPM_TT_M,Precipitación total mensual,Mensual,1996-12-01,114.8,50,,900,59.49702,chirps-v2.0.1996.12.tif
64019,35070110,GUAYATA LA GRANJA [35070110],4.976083333,-73.49930556,1580,Pluviográfica,INSTITUTO DE HIDROLOGIA METEOROLOGIA Y ESTUDIOS AMBIENTALES,Area Operativa 06 - Boyacá-Casanare-Vichada,Boyacá,Guayatá,1971-07-15,,PRECIPITACION,PTPM_TT_M,Precipitación total mensual,Mensual,1996-12-01,35.6,50,,900,77.911606,chirps-v2.0.1996.12.tif
64813,21201770,ANCLAJE 14  [21201770],4.6,-74.4,1110,Pluviográfica,CORPORACION AUTONOMA REGIONAL DE CUNDINAMARCA,Area Operativa 11 - Cundinamarca-Amazonas,Bogota,"Bogota, D.C",1987-12-15,,PRECIPITACION,PTPM_TT_M,Precipitación total mensual,Mensual,1996-12-01,0.0,50,,900,77.218796,chirps-v2.0.1996.12.tif
66113,21200080,ARRAYAN-SAN FCO  [21200080],4.583333333,-74.03333333,3047,Pluviométrica,EMPRESA DE ACUEDUCTO Y ALCANTARILLADO DE BOGOTA E.S.P,Area Operativa 11 - Cundinamarca-Amazonas,Bogota,"Bogota, D.C",1925-01-15,,PRECIPITACION,PTPM_TT_M,Precipitación total mensual,Mensual,1996-12-01,96.2,50,,900,55.309063,chirps-v2.0.1996.12.tif
66426,21201300,AUSTRALIA [21201300],4.39425,-74.132,3050,Pluviométrica,INSTITUTO DE HIDROLOGIA METEOROLOGIA Y ESTUDIOS AMBIENTALES,Area Operativa 11 - Cundinamarca-Amazonas,Bogota,"Bogota, D.C",1985-03-15,,PRECIPITACION,PTPM_TT_M,Precipitación total mensual,Mensual,1996-12-01,73.3,50,,900,46.15132,chirps-v2.0.1996.12.tif
66867,35020350,BETANIA [35020350],4.218888889,-74.14686111,3150,Pluviométrica,INSTITUTO DE HIDROLOGIA METEOROLOGIA Y ESTUDIOS AMBIENTALES,Area Operativa 11 - Cundinamarca-Amazonas,Bogota,"Bogota, D.C",1986-01-15,,PRECIPITACION,PTPM_TT_M,Precipitación total mensual,Mensual,1996-12-01,97.5,50,,900,79.59899,chirps-v2.0.1996.12.tif
67845,21200190,BOCA GRANDE  [21200190],4.333333333,-74.13333333,3460,Pluviométrica,EMPRESA DE ACUEDUCTO Y ALCANTARILLADO DE BOGOTA E.S.P,Area Operativa 11 - Cundinamarca-Amazonas,Bogota,"Bogota, D.C",1941-08-15,,PRECIPITACION,PTPM_TT_M,Precipitación total mensual,Mensual,1996-12-01,96.1,50,,900,51.866417,chirps-v2.0.1996.12.tif
69011,21205690,CAMAVIEJA  [21205690],4.616666667,-74.1,2680,Climática Ordinaria,EMPRESA DE ACUEDUCTO Y ALCANTARILLADO DE BOGOTA E.S.P,Area Operativa 11 - Cundinamarca-Amazonas,Bogota,"Bogota, D.C",1957-11-15,,PRECIPITACION,PTPM_TT_M,Precipitación total mensual,Mensual,1996-12-01,9.0,50,,900,38.2073,chirps-v2.0.1996.12.tif
69433,21201970,CASABLANCA  [21201970],4.566666667,-74.16666667,2665,Pluviométrica,EMPRESA DE ACUEDUCTO Y ALCANTARILLADO DE BOGOTA E.S.P,Area Operativa 11 - Cundinamarca-Amazonas,Bogota,"Bogota, D.C",1976-05-15,,PRECIPITACION,PTPM_TT_M,Precipitación total mensual,Mensual,1996-12-01,28.6,50,,900,45.651314,chirps-v2.0.1996.12.tif
70800,21200850,CISACA  [21200850],4.483333333,-74.08333333,2880,Pluviográfica,CORPORACION AUTONOMA REGIONAL DE CUNDINAMARCA,Area Operativa 11 - Cundinamarca-Amazonas,Bogota,"Bogota, D.C",1962-12-15,,PRECIPITACION,PTPM_TT_M,Precipitación total mensual,Mensual,1996-12-01,69.1,4,,900,59.14311,chirps-v2.0.1996.12.tif
70988,21206500,COL ABRAHAM LINCOL [21206500],4.756638889,-74.06158333,2570,Climática Ordinaria,INSTITUTO DE HIDROLOGIA METEOROLOGIA Y ESTUDIOS AMBIENTALES,Area Operativa 11 - Cundinamarca-Amazonas,Bogota,"Bogota, D.C",1994-10-15,2009-11-03 00:00:00,PRECIPITACION,PTPM_TT_M,Precipitación total mensual,Mensual,1996-12-01,10.2,50,,900,58.127598,chirps-v2.0.1996.12.tif
71694,21202080,CONEJERA LA  [21202080],4.766666667,-74.06666667,2500,Pluviográfica,EMPRESA DE ACUEDUCTO Y ALCANTARILLADO DE BOGOTA E.S.P,Area Operativa 11 - Cundinamarca-Amazonas,Bogota,"Bogota, D.C",1990-05-15,,PRECIPITACION,PTPM_TT_M,Precipitación total mensual,Mensual,1996-12-01,45.0,50,,900,58.127598,chirps-v2.0.1996.12.tif
72987,21200130,DELIRIO  [21200130],4.55,-74.05,3000,Pluviométrica,EMPRESA DE ACUEDUCTO Y ALCANTARILLADO DE BOGOTA E.S.P,Area Operativa 11 - Cundinamarca-Amazonas,Bogota,"Bogota, D.C",1933-05-15,,PRECIPITACION,PTPM_TT_M,Precipitación total mensual,Mensual,1996-12-01,76.0,50,,900,56.922714,chirps-v2.0.1996.12.tif
73253,21206300,DONA JUANA  [21206300],4.5,-74.16666667,2700,Climática Principal,CORPORACION AUTONOMA REGIONAL DE CUNDINAMARCA,Area Operativa 11 - Cundinamarca-Amazonas,Bogota,"Bogota, D.C",1989-03-15,,PRECIPITACION,PTPM_TT_M,Precipitación total mensual,Mensual,1996-12-01,47.1,50,,900,46.896923,chirps-v2.0.1996.12.tif
73909,21205791,ELDORADO CATAM - AUT [21205791],4.705583333,-74.15066667,2547,Sinóptica Principal,INSTITUTO DE HIDROLOGIA METEOROLOGIA Y ESTUDIOS AMBIENTALES,Area Operativa 11 - Cundinamarca-Amazonas,Bogota,"Bogota, D.C",2002-10-31,,PRECIPITACION,PTPM_TT_M,Precipitación total mensual,Mensual,1996-12-01,34.7,50,,900,47.353676,chirps-v2.0.1996.12.tif
77348,21205400,CHECUA-NEMOCON  [21205400],5.116666667,-73.86666667,2580,Climática Principal,CORPORACION AUTONOMA REGIONAL DE CUNDINAMARCA,Area Operativa 11 - Cundinamarca-Amazonas,Cundinamarca,Nemocón,1953-04-15,,PRECIPITACION,PTPM_TT_M,Precipitación total mensual,Mensual,1996-12-01,43.5,50,,900,66.787155,chirps-v2.0.1996.12.tif
77516,21206050,ESCUELA COL INGENIERIA [21206050],4.783333333,-74.05,2650,Climática Principal,INSTITUTO DE HIDROLOGIA METEOROLOGIA Y ESTUDIOS AMBIENTALES,Area Operativa 11 - Cundinamarca-Amazonas,Bogota,"Bogota, D.C",1986-04-15,2008-12-10 00:00:00,PRECIPITACION,PTPM_TT_M,Precipitación total mensual,Mensual,1996-12-01,47.1,50,,900,58.127598,chirps-v2.0.1996.12.tif
77779,21201200,ESCUELA LA UNION [21201200],4.34264,-74.18381,3378,Climática Ordinaria,INSTITUTO DE HIDROLOGIA METEOROLOGIA Y ESTUDIOS AMBIENTALES,Area Operativa 11 - Cundinamarca-Amazonas,Bogota,"Bogota, D.C",2007-08-01,,PRECIPITACION,PTPM_TT_M,Precipitación total mensual,Mensual,1996-12-01,37.2,50,,900,65.81988,chirps-v2.0.1996.12.tif
78604,21202120,FONTIBON ACUEDUCTO  [21202120],4.666666667,-74.15,2545,Pluviométrica,EMPRESA DE ACUEDUCTO Y ALCANTARILLADO DE BOGOTA E.S.P,Area Operativa 11 - Cundinamarca-Amazonas,Bogota,"Bogota, D.C",1955-09-15,,PRECIPITACION,PTPM_TT_M,Precipitación total mensual,Mensual,1996-12-01,25.9,50,,900,44.527157,chirps-v2.0.1996.12.tif
79345,21200320,GRANIZO  [21200320],4.616666667,-74.05,3125,Pluviométrica,EMPRESA DE ACUEDUCTO Y ALCANTARILLADO DE BOGOTA E.S.P,Area Operativa 11 - Cundinamarca-Amazonas,Bogota,"Bogota, D.C",1947-09-15,,PRECIPITACION,PTPM_TT_M,Precipitación total mensual,Mensual,1996-12-01,143.9,50,,900,47.883537,chirps-v2.0.1996.12.tif
79637,21201980,GUADALUPE  - AUT  [21201980],4.59157,-74.05471,3227,Climática Ordinaria,FONDO DE PREVENCION Y ATENCION DE DESASTRES DE BOGOTA DC - FOPAE,Area Operativa 11 - Cundinamarca-Amazonas,Bogota,"Bogota, D.C",2007-09-01,,PRECIPITACION,PTPM_TT_M,Precipitación total mensual,Mensual,1996-12-01,0.0,50,,900,56.922714,chirps-v2.0.1996.12.tif
80508,21200200,HATO EL  [21200200],4.383333333,-74.18333333,3150,Pluviométrica,EMPRESA DE ACUEDUCTO Y ALCANTARILLADO DE BOGOTA E.S.P,Area Operativa 11 - Cundinamarca-Amazonas,Bogota,"Bogota, D.C",1928-06-15,,PRECIPITACION,PTPM_TT_M,Precipitación total mensual,Mensual,1996-12-01,65.4,50,,900,60.733406,chirps-v2.0.1996.12.tif
81895,21205710,JARDIN BOTANICO  - AUT [21205710],4.669333333,-74.10266667,2552,Climática Principal,INSTITUTO DE HIDROLOGIA METEOROLOGIA Y ESTUDIOS AMBIENTALES,Area Operativa 11 - Cundinamarca-Amazonas,Bogota,"Bogota, D.C",1974-09-15,,PRECIPITACION,PTPM_TT_M,Precipitación total mensual,Mensual,1996-12-01,30.1,4,,900,28.873533,chirps-v2.0.1996.12.tif
82558,21202040,JUAN REY  [21202040],4.516666667,-74.08333333,2682,Pluviográfica,FONDO DE PREVENCION Y ATENCION DE DESASTRES DE BOGOTA DC - FOPAE,Area Operativa 11 - Cundinamarca-Amazonas,Bogota,"Bogota, D.C",1990-08-15,,PRECIPITACION,PTPM_TT_M,Precipitación total mensual,Mensual,1996-12-01,62.9,50,,900,57.168037,chirps-v2.0.1996.12.tif
84721,21201560,PICOTA LA  [21201560],4.566666667,-74.13333333,2580,Pluviográfica,CORPORACION AUTONOMA REGIONAL DE CUNDINAMARCA,Area Operativa 11 - Cundinamarca-Amazonas,Bogota,"Bogota, D.C",1980-06-15,,PRECIPITACION,PTPM_TT_M,Precipitación total mensual,Mensual,1996-12-01,26.6,50,,900,49.03032,chirps-v2.0.1996.12.tif
84973,21202050,QUIBA  [21202050],4.533333333,-74.16666667,3000,Pluviográfica,EMPRESA DE ACUEDUCTO Y ALCANTARILLADO DE BOGOTA E.S.P,Area Operativa 11 - Cundinamarca-Amazonas,Bogota,"Bogota, D.C",1990-01-15,,PRECIPITACION,PTPM_TT_M,Precipitación total mensual,Mensual,1996-12-01,28.0,50,,900,46.896923,chirps-v2.0.1996.12.tif
86148,21200340,REGADERA 2 LA  [21200340],4.4,-74.15,3056,Pluviométrica,EMPRESA DE ACUEDUCTO Y ALCANTARILLADO DE BOGOTA E.S.P,Area Operativa 11 - Cundinamarca-Amazonas,Bogota,"Bogota, D.C",1948-01-15,,PRECIPITACION,PTPM_TT_M,Precipitación total mensual,Mensual,1996-12-01,75.6,50,,900,61.778255,chirps-v2.0.1996.12.tif
86579,21201960,SALITRE CASA BOMBA  [21201960],4.666666667,-74.06666667,2580,Pluviográfica,EMPRESA DE ACUEDUCTO Y ALCANTARILLADO DE BOGOTA E.S.P,Area Operativa 11 - Cundinamarca-Amazonas,Bogota,"Bogota, D.C",1975-01-15,,PRECIPITACION,PTPM_TT_M,Precipitación total mensual,Mensual,1996-12-01,0.0,50,,900,39.31057,chirps-v2.0.1996.12.tif
88184,21200400,SAN LUIS 1 Y 2  [21200400],4.633333333,-74.03333333,3000,Pluviográfica,EMPRESA DE ACUEDUCTO Y ALCANTARILLADO DE BOGOTA E.S.P,Area Operativa 11 - Cundinamarca-Amazonas,Bogota,"Bogota, D.C",1936-02-15,,PRECIPITACION,PTPM_TT_M,Precipitación total mensual,Mensual,1996-12-01,120.6,50,,900,54.585,chirps-v2.0.1996.12.tif
88876,21202070,SAUCEDAL 2  [21202070],4.65,-74.15,2900,Pluviométrica,EMPRESA DE ACUEDUCTO Y ALCANTARILLADO DE BOGOTA E.S.P,Area Operativa 11 - Cundinamarca-Amazonas,Bogota,"Bogota, D.C",1990-04-15,,PRECIPITACION,PTPM_TT_M,Precipitación total mensual,Mensual,1996-12-01,27.4,50,,900,44.527157,chirps-v2.0.1996.12.tif
89172,21201600,SEDE IDEAM KRA 10 [21201600],4.607111111,-74.07288889,2685,Pluviográfica,INSTITUTO DE HIDROLOGIA METEOROLOGIA Y ESTUDIOS AMBIENTALES,Area Operativa 11 - Cundinamarca-Amazonas,Bogota,"Bogota, D.C",1986-09-15,2019-05-03 14:58:00,PRECIPITACION,PTPM_TT_M,Precipitación total mensual,Mensual,1996-12-01,64.5,50,,900,47.883537,chirps-v2.0.1996.12.tif
89519,21202020,SERREZUELA  [21202020],4.766666667,-74.01666667,2800,Pluviográfica,EMPRESA DE ACUEDUCTO Y ALCANTARILLADO DE BOGOTA E.S.P,Area Operativa 11 - Cundinamarca-Amazonas,Bogota,"Bogota, D.C",1989-11-15,,PRECIPITACION,PTPM_TT_M,Precipitación total mensual,Mensual,1996-12-01,59.9,50,,900,56.980858,chirps-v2.0.1996.12.tif
90175,21200520,STA LUCIA  [21200520],4.566666667,-74.11666667,2630,Pluviométrica,EMPRESA DE ACUEDUCTO Y ALCANTARILLADO DE BOGOTA E.S.P,Area Operativa 11 - Cundinamarca-Amazonas,Bogota,"Bogota, D.C",1956-07-15,,PRECIPITACION,PTPM_TT_M,Precipitación total mensual,Mensual,1996-12-01,63.4,50,,900,49.03032,chirps-v2.0.1996.12.tif
90821,21200770,TORCA  [21200770],4.783333333,-74.03333333,2579,Pluviométrica,CORPORACION AUTONOMA REGIONAL DE CUNDINAMARCA,Area Operativa 11 - Cundinamarca-Amazonas,Bogota,"Bogota, D.C",1960-02-15,,PRECIPITACION,PTPM_TT_M,Precipitación total mensual,Mensual,1996-12-01,49.0,50,,900,56.980858,chirps-v2.0.1996.12.tif
91571,21205012,UNIVERSIDAD NACIONAL  - AUT [21205012],4.63723,-74.08892,2556,Climática Principal,INSTITUTO DE HIDROLOGIA METEOROLOGIA Y ESTUDIOS AMBIENTALES,Area Operativa 11 - Cundinamarca-Amazonas,Bogota,"Bogota, D.C",2004-08-19,,PRECIPITACION,PTPM_TT_M,Precipitación total mensual,Mensual,1996-12-01,67.5,50,,900,47.883537,chirps-v2.0.1996.12.tif
92206,21206230,VEGAS LAS HACIENDA [21206230],4.661666667,-74.15141944,2543,Climática Ordinaria,INSTITUTO DE HIDROLOGIA METEOROLOGIA Y ESTUDIOS AMBIENTALES,Area Operativa 11 - Cundinamarca-Amazonas,Bogota,"Bogota, D.C",1987-08-15,2011-05-10 00:00:00,PRECIPITACION,PTPM_TT_M,Precipitación total mensual,Mensual,1996-12-01,25.0,50,,900,44.527157,chirps-v2.0.1996.12.tif
92655,21205580,VENADO ORO VIVERO [21205580],4.598361111,-74.06155556,2725,Climática Ordinaria,INSTITUTO DE HIDROLOGIA METEOROLOGIA Y ESTUDIOS AMBIENTALES,Area Operativa 11 - Cundinamarca-Amazonas,Bogota,"Bogota, D.C",1965-08-15,,PRECIPITACION,PTPM_TT_M,Precipitación total mensual,Mensual,1996-12-01,92.5,50,,900,56.922714,chirps-v2.0.1996.12.tif
93533,21200240,VERJON EL  [21200240],4.583333333,-74.01666667,3250,Pluviométrica,EMPRESA DE ACUEDUCTO Y ALCANTARILLADO DE BOGOTA E.S.P,Area Operativa 11 - Cundinamarca-Amazonas,Bogota,"Bogota, D.C",1946-02-15,,PRECIPITACION,PTPM_TT_M,Precipitación total mensual,Mensual,1996-12-01,78.7,50,,900,55.309063,chirps-v2.0.1996.12.tif
94694,21205240,VITELMA  [21205240],4.566666667,-74.06666667,2682,Climática Ordinaria,EMPRESA DE ACUEDUCTO Y ALCANTARILLADO DE BOGOTA E.S.P,Area Operativa 11 - Cundinamarca-Amazonas,Bogota,"Bogota, D.C",1941-05-15,,PRECIPITACION,PTPM_TT_M,Precipitación total mensual,Mensual,1996-12-01,110.1,50,,900,56.922714,chirps-v2.0.1996.12.tif
95544,35030020,MONFORT [35030020],4.310083333,-73.64802778,1100,Pluviométrica,INSTITUTO DE HIDROLOGIA METEOROLOGIA Y ESTUDIOS AMBIENTALES,Area Operativa 03 - Meta-Guaviare-Guainía,Meta,El Calvario,1968-08-15,,PRECIPITACION,PTPM_TT_M,Precipitación total mensual,Mensual,1996-12-01,320.0,50,,1200,250.91013,chirps-v2.0.1996.12.tif
96284,21185040,AEROPUERTO SANTIAGO VILA [21185040],4.275444444,-74.798,305,Climática Principal,INSTITUTO DE HIDROLOGIA METEOROLOGIA Y ESTUDIOS AMBIENTALES,Area Operativa 10 - Tolima,Tolima,Flandes,1951-01-15,,PRECIPITACION,PTPM_TT_M,Precipitación total mensual,Mensual,1996-12-01,45.1,50,,1200,60.160133,chirps-v2.0.1996.12.tif
96748,21250610,ALSACIA [21250610],4.85,-74.78333333,310,Pluviométrica,INSTITUTO DE HIDROLOGIA METEOROLOGIA Y ESTUDIOS AMBIENTALES,Area Operativa 10 - Tolima,Tolima,Ambalema,1983-07-15,2002-02-15 00:00:00,PRECIPITACION,PTPM_TT_M,Precipitación total mensual,Mensual,1996-12-01,69.0,50,,900,94.773605,chirps-v2.0.1996.12.tif
97285,21250590,BOCATOMA C CENTRAL [21250590],4.783333333,-74.78333333,310,Pluviométrica,INSTITUTO DE HIDROLOGIA METEOROLOGIA Y ESTUDIOS AMBIENTALES,Area Operativa 10 - Tolima,Tolima,Ambalema,1983-07-15,2002-02-15 00:00:00,PRECIPITACION,PTPM_TT_M,Precipitación total mensual,Mensual,1996-12-01,114.0,50,,900,69.47274,chirps-v2.0.1996.12.tif
97535,21250540,BOCATOMA C NORTE [21250540],4.783333333,-74.8,340,Pluviométrica,INSTITUTO DE HIDROLOGIA METEOROLOGIA Y ESTUDIOS AMBIENTALES,Area Operativa 10 - Tolima,Tolima,Ambalema,1983-07-15,2002-02-15 00:00:00,PRECIPITACION,PTPM_TT_M,Precipitación total mensual,Mensual,1996-12-01,73.0,50,,900,95.01463,chirps-v2.0.1996.12.tif
97766,21250580,BOQUERON [21250580],4.8,-74.83333333,405,Pluviométrica,INSTITUTO DE HIDROLOGIA METEOROLOGIA Y ESTUDIOS AMBIENTALES,Area Operativa 10 - Tolima,Tolima,Ambalema,1983-07-15,2002-02-15 00:00:00,PRECIPITACION,PTPM_TT_M,Precipitación total mensual,Mensual,1996-12-01,59.0,50,,900,113.27762,chirps-v2.0.1996.12.tif
98178,21250430,CAMPAMENTO AMBALEM [21250430],4.783333333,-74.76666667,241,Pluviométrica,INSTITUTO DE HIDROLOGIA METEOROLOGIA Y ESTUDIOS AMBIENTALES,Area Operativa 10 - Tolima,Tolima,Ambalema,1968-07-15,2002-02-15 00:00:00,PRECIPITACION,PTPM_TT_M,Precipitación total mensual,Mensual,1996-12-01,171.0,50,,900,69.47274,chirps-v2.0.1996.12.tif
98646,21170020,DOS AGUAS LAS [21170020],4.258277778,-74.78361111,3394,Pluviométrica,INSTITUTO DE HIDROLOGIA METEOROLOGIA Y ESTUDIOS AMBIENTALES,Area Operativa 10 - Tolima,Tolima,Suárez,1951-01-15,,PRECIPITACION,PTPM_TT_M,Precipitación total mensual,Mensual,1996-12-01,88.0,50,,1200,60.160133,chirps-v2.0.1996.12.tif
99270,23025020,ESPERANZA LA [23025020],5.262638889,-74.72913889,208,Climática Ordinaria,INSTITUTO DE HIDROLOGIA METEOROLOGIA Y ESTUDIOS AMBIENTALES,Area Operativa 10 - Tolima,Tolima,Honda,1970-10-15,2016-01-06 00:00:00,PRECIPITACION,PTPM_TT_M,Precipitación total mensual,Mensual,1996-12-01,149.2,50,,900,122.43934,chirps-v2.0.1996.12.tif
99640,21250570,IGUACITOS [21250570],4.85,-74.85,375,Pluviométrica,INSTITUTO DE HIDROLOGIA METEOROLOGIA Y ESTUDIOS AMBIENTALES,Area Operativa 10 - Tolima,Tolima,Lérida,1983-07-15,2002-02-15 00:00:00,PRECIPITACION,PTPM_TT_M,Precipitación total mensual,Mensual,1996-12-01,24.6,4,,900,134.56097,chirps-v2.0.1996.12.tif
100082,21190300,SALERO EL [21190300],4.234527778,-74.60663889,650,Pluviométrica,INSTITUTO DE HIDROLOGIA METEOROLOGIA Y ESTUDIOS AMBIENTALES,Area Operativa 10 - Tolima,Tolima,Melgar,1971-11-15,2014-08-28 00:00:00,PRECIPITACION,PTPM_TT_M,Precipitación total mensual,Mensual,1996-12-01,203.7,50,,900,81.385345,chirps-v2.0.1996.12.tif
100570,21255080,SALTO EL [21255080],4.78375,-74.76794444,1139,Climática Principal,INSTITUTO DE HIDROLOGIA METEOROLOGIA Y ESTUDIOS AMBIENTALES,Area Operativa 10 - Tolima,Tolima,Ambalema,1968-11-15,,PRECIPITACION,PTPM_TT_M,Precipitación total mensual,Mensual,1996-12-01,194.5,50,,900,69.47274,chirps-v2.0.1996.12.tif
100946,23060260,CHILAGUA FINCA [23060260],5.064638889,-74.38202778,1500,Pluviométrica,INSTITUTO DE HIDROLOGIA METEOROLOGIA Y ESTUDIOS AMBIENTALES,Area Operativa 11 - Cundinamarca-Amazonas,Cundinamarca,Nocaima,1987-12-15,,PRECIPITACION,PTPM_TT_M,Precipitación total mensual,Mensual,1996-12-01,138.9,50,,900,101.02441,chirps-v2.0.1996.12.tif
102630,35020240,CHOACHI  [35020240],4.533333333,-73.93333333,1950,Pluviográfica,EMPRESA DE ACUEDUCTO Y ALCANTARILLADO DE BOGOTA E.S.P,Area Operativa 11 - Cundinamarca-Amazonas,Cundinamarca,Choachí,1947-08-15,,PRECIPITACION,PTPM_TT_M,Precipitación total mensual,Mensual,1996-12-01,55.2,50,,900,80.04807,chirps-v2.0.1996.12.tif
102983,35020280,CHOACHI [35020280],4.522916667,-73.92658333,1950,Pluviométrica,INSTITUTO DE HIDROLOGIA METEOROLOGIA Y ESTUDIOS AMBIENTALES,Area Operativa 11 - Cundinamarca-Amazonas,Cundinamarca,Choachí,1981-11-15,,PRECIPITACION,PTPM_TT_M,Precipitación total mensual,Mensual,1996-12-01,54.3,50,,900,80.04807,chirps-v2.0.1996.12.tif
104115,35060210,CLARAVAL AUT [35060210],4.65025,-73.64144444,2100,Climática Principal,INSTITUTO DE HIDROLOGIA METEOROLOGIA Y ESTUDIOS AMBIENTALES,Area Operativa 11 - Cundinamarca-Amazonas,Cundinamarca,Junín,1972-02-15,,PRECIPITACION,PTPM_TT_M,Precipitación total mensual,Mensual,1996-12-01,80.8,50,,900,94.791595,chirps-v2.0.1996.12.tif
104956,21201070,CORAZON EL [21201070],4.865361111,-74.28941667,2845,Pluviométrica,INSTITUTO DE HIDROLOGIA METEOROLOGIA Y ESTUDIOS AMBIENTALES,Area Operativa 11 - Cundinamarca-Amazonas,Cundinamarca,Facatativá,1974-07-15,,PRECIPITACION,PTPM_TT_M,Precipitación total mensual,Mensual,1996-12-01,65.0,50,,900,92.61106,chirps-v2.0.1996.12.tif
106152,24010140,CUCUNUBA [24010140],5.21957,-73.78229,2818,Pluviométrica,INSTITUTO DE HIDROLOGIA METEOROLOGIA Y ESTUDIOS AMBIENTALES,Area Operativa 11 - Cundinamarca-Amazonas,Cundinamarca,Cucunubá,1958-01-15,2019-11-13 11:27:00,PRECIPITACION,PTPM_TT_M,Precipitación total mensual,Mensual,1996-12-01,52.8,50,,900,46.06439,chirps-v2.0.1996.12.tif
106539,24011080,CUCUNUBA1 [24011080],5.25,-73.77,3,Pluviométrica,INSTITUTO DE HIDROLOGIA METEOROLOGIA Y ESTUDIOS AMBIENTALES,Area Operativa 11 - Cundinamarca-Amazonas,Cundinamarca,Cucunubá,1987-05-15,,PRECIPITACION,PTPM_TT_M,Precipitación total mensual,Mensual,1996-12-01,70.1,50,,900,48.814987,chirps-v2.0.1996.12.tif
107225,35040010,EL RETIRO [35040010],4.338722222,-73.54652778,870,Pluviométrica,INSTITUTO DE HIDROLOGIA METEOROLOGIA Y ESTUDIOS AMBIENTALES,Area Operativa 03 - Meta-Guaviare-Guainía,Cundinamarca,Medina,1968-08-15,,PRECIPITACION,PTPM_TT_M,Precipitación total mensual,Mensual,1996-12-01,428.0,50,,1200,303.6919,chirps-v2.0.1996.12.tif
107889,24010390,EL TRIANGULO  - AUT  [24010390],5.305305556,-73.61930556,2879,Pluviográfica,CORPORACION AUTONOMA REGIONAL DE CUNDINAMARCA,Area Operativa 11 - Cundinamarca-Amazonas,Cundinamarca,Lenguazaque,1963-01-15,,PRECIPITACION,PTPM_TT_M,Precipitación total mensual,Mensual,1996-12-01,144.7,50,,900,55.659958,chirps-v2.0.1996.12.tif
109735,35060100,ESCUELA TENA [35060100],4.712694444,-73.52069444,1650,Pluviográfica,INSTITUTO DE HIDROLOGIA METEOROLOGIA Y ESTUDIOS AMBIENTALES,Area Operativa 11 - Cundinamarca-Amazonas,Cundinamarca,Gachalá,1972-08-15,,PRECIPITACION,PTPM_TT_M,Precipitación total mensual,Mensual,1996-12-01,99.4,50,,900,81.27733,chirps-v2.0.1996.12.tif
110313,21201140,ESPERANZA LA [21201140],4.802166667,-74.17997222,2555,Pluviométrica,INSTITUTO DE HIDROLOGIA METEOROLOGIA Y ESTUDIOS AMBIENTALES,Area Operativa 11 - Cundinamarca-Amazonas,Cundinamarca,Tenjo,1974-07-15,,PRECIPITACION,PTPM_TT_M,Precipitación total mensual,Mensual,1996-12-01,46.8,50,,900,66.95827,chirps-v2.0.1996.12.tif
110743,35070480,ESPERANZA LA [35070480],5.0100278,-73.539444444,1854,Pluviográfica,INSTITUTO DE HIDROLOGIA METEOROLOGIA Y ESTUDIOS AMBIENTALES,Area Operativa 06 - Boyacá-Casanare-Vichada,Cundinamarca,Manta,1982-08-15,,PRECIPITACION,PTPM_TT_M,Precipitación total mensual,Mensual,1996-12-01,41.8,50,,900,42.233902,chirps-v2.0.1996.12.tif
112081,21205670,FLORIDA LA AUT [21205670],4.770888889,-74.43763889,1915,Climática Principal,INSTITUTO DE HIDROLOGIA METEOROLOGIA Y ESTUDIOS AMBIENTALES,Area Operativa 11 - Cundinamarca-Amazonas,Cundinamarca,Anolaima,1970-11-15,,PRECIPITACION,PTPM_TT_M,Precipitación total mensual,Mensual,1996-12-01,61.7,50,,900,85.455284,chirps-v2.0.1996.12.tif
112559,35020290,FOMEQUE [35020290],4.486527778,-73.89041667,1900,Pluviométrica,INSTITUTO DE HIDROLOGIA METEOROLOGIA Y ESTUDIOS AMBIENTALES,Area Operativa 11 - Cundinamarca-Amazonas,Cundinamarca,Fómeque,1981-11-15,,PRECIPITACION,PTPM_TT_M,Precipitación total mensual,Mensual,1996-12-01,63.8,50,,900,98.37981,chirps-v2.0.1996.12.tif
113238,21201660,FUTE  [21201660],4.6,-74.28333333,2607,Pluviográfica,CORPORACION AUTONOMA REGIONAL DE CUNDINAMARCA,Area Operativa 11 - Cundinamarca-Amazonas,Cundinamarca,Soacha,1959-09-15,,PRECIPITACION,PTPM_TT_M,Precipitación total mensual,Mensual,1996-12-01,38.0,50,,900,60.924957,chirps-v2.0.1996.12.tif
113820,35060090,GACHALA [35060090],4.690527778,-73.52291667,1733,Pluviométrica,INSTITUTO DE HIDROLOGIA METEOROLOGIA Y ESTUDIOS AMBIENTALES,Area Operativa 11 - Cundinamarca-Amazonas,Cundinamarca,Gachalá,1962-04-15,,PRECIPITACION,PTPM_TT_M,Precipitación total mensual,Mensual,1996-12-01,118.3,50,,900,102.59905,chirps-v2.0.1996.12.tif
114660,35065010,GACHETA [35065010],4.830388889,-73.64647222,1752,Climática Ordinaria,INSTITUTO DE HIDROLOGIA METEOROLOGIA Y ESTUDIOS AMBIENTALES,Area Operativa 11 - Cundinamarca-Amazonas,Cundinamarca,Gachetá,1972-09-15,,PRECIPITACION,PTPM_TT_M,Precipitación total mensual,Mensual,1996-12-01,71.3,50,,900,81.95461,chirps-v2.0.1996.12.tif
115220,35060240,GAMA [35060240],4.764277778,-73.60991667,2210,Pluviométrica,INSTITUTO DE HIDROLOGIA METEOROLOGIA Y ESTUDIOS AMBIENTALES,Area Operativa 11 - Cundinamarca-Amazonas,Cundinamarca,Gama,1972-08-15,,PRECIPITACION,PTPM_TT_M,Precipitación total mensual,Mensual,1996-12-01,88.0,50,,900,68.25456,chirps-v2.0.1996.12.tif
115870,35030250,GUADUAL EL  [35030250],4.4,-73.68333333,3300,Pluviométrica,EMPRESA DE ACUEDUCTO Y ALCANTARILLADO DE BOGOTA E.S.P,Area Operativa 11 - Cundinamarca-Amazonas,Cundinamarca,Fómeque,1990-08-15,,PRECIPITACION,PTPM_TT_M,Precipitación total mensual,Mensual,1996-12-01,76.5,50,,900,162.75784,chirps-v2.0.1996.12.tif
116636,21201180,GUANQUICA [21201180],5.184277778,-73.941111111,3,Pluviométrica,INSTITUTO DE HIDROLOGIA METEOROLOGIA Y ESTUDIOS AMBIENTALES,Area Operativa 11 - Cundinamarca-Amazonas,Cundinamarca,Tausa,1954-12-15,,PRECIPITACION,PTPM_TT_M,Precipitación total mensual,Mensual,1996-12-01,85.8,50,,900,61.96869,chirps-v2.0.1996.12.tif
117394,21200600,GUARANI EL PENON  [21200600],4.433333333,-74.3,2800,Pluviográfica,CORPORACION AUTONOMA REGIONAL DE CUNDINAMARCA,Area Operativa 11 - Cundinamarca-Amazonas,Cundinamarca,Sibaté,1959-09-15,,PRECIPITACION,PTPM_TT_M,Precipitación total mensual,Mensual,1996-12-01,65.2,50,,900,77.842384,chirps-v2.0.1996.12.tif
117814,21205700,GUASCA [21205700],4.879861111,-73.86811111,2750,Climática Ordinaria,INSTITUTO DE HIDROLOGIA METEOROLOGIA Y ESTUDIOS AMBIENTALES,Area Operativa 11 - Cundinamarca-Amazonas,Cundinamarca,Guasca,1974-07-15,,PRECIPITACION,PTPM_TT_M,Precipitación total mensual,Mensual,1996-12-01,44.4,50,,900,57.997303,chirps-v2.0.1996.12.tif
118259,35020300,GUTIERREZ [35020300],4.253916667,-74.00269444,2300,Climática Principal,INSTITUTO DE HIDROLOGIA METEOROLOGIA Y ESTUDIOS AMBIENTALES,Area Operativa 11 - Cundinamarca-Amazonas,Cundinamarca,Gutiérrez,1984-07-15,,PRECIPITACION,PTPM_TT_M,Precipitación total mensual,Mensual,1996-12-01,115.1,50,,900,80.50119,chirps-v2.0.1996.12.tif
120860,21201210,HATO EL [21201210],4.866388889,-74.15386111,2575,Pluviométrica,INSTITUTO DE HIDROLOGIA METEOROLOGIA Y ESTUDIOS AMBIENTALES,Area Operativa 11 - Cundinamarca-Amazonas,Cundinamarca,Tenjo,1978-06-15,,PRECIPITACION,PTPM_TT_M,Precipitación total mensual,Mensual,1996-12-01,47.2,50,,900,74.12446,chirps-v2.0.1996.12.tif
121308,35070490,HATO GRANDE HACIENDA [35070490],4.959388889,-73.58436111,2346,Pluviométrica,INSTITUTO DE HIDROLOGIA METEOROLOGIA Y ESTUDIOS AMBIENTALES,Area Operativa 11 - Cundinamarca-Amazonas,Cundinamarca,Manta,1982-07-15,,PRECIPITACION,PTPM_TT_M,Precipitación total mensual,Mensual,1996-12-01,84.7,50,,900,56.19751,chirps-v2.0.1996.12.tif
122277,21202110,HUERTAS LAS  [21202110],4.583333333,-74.23333333,2572,Pluviográfica,EMPRESA DE ACUEDUCTO Y ALCANTARILLADO DE BOGOTA E.S.P,Area Operativa 11 - Cundinamarca-Amazonas,Cundinamarca,Soacha,1968-11-15,,PRECIPITACION,PTPM_TT_M,Precipitación total mensual,Mensual,1996-12-01,38.9,50,,900,55.599335,chirps-v2.0.1996.12.tif
122676,21201410,ACANDY  [21201410],5.05,-73.88333333,2600,Pluviométrica,CORPORACION AUTONOMA REGIONAL DE CUNDINAMARCA,Area Operativa 11 - Cundinamarca-Amazonas,Cundinamarca,Nemocón,1977-10-15,,PRECIPITACION,PTPM_TT_M,Precipitación total mensual,Mensual,1996-12-01,54.8,50,,900,69.8793,chirps-v2.0.1996.12.tif
122927,21206280,ACAPULCO AUT [21206280],4.64823,-74.32035,2680,Climática Principal,INSTITUTO DE HIDROLOGIA METEOROLOGIA Y ESTUDIOS AMBIENTALES,Area Operativa 11 - Cundinamarca-Amazonas,Cundinamarca,Bojacá,1990-02-15,,PRECIPITACION,PTPM_TT_M,Precipitación total mensual,Mensual,1996-12-01,25.2,50,,900,48.16594,chirps-v2.0.1996.12.tif
123954,21201130,ALMAVIVA  [21201130],4.866666667,-74.01666667,2595,Pluviométrica,CORPORACION AUTONOMA REGIONAL DE CUNDINAMARCA,Area Operativa 11 - Cundinamarca-Amazonas,Cundinamarca,Chía,1973-04-15,,PRECIPITACION,PTPM_TT_M,Precipitación total mensual,Mensual,1996-12-01,0.0,50,,900,83.2449,chirps-v2.0.1996.12.tif
