,CodigoEstacion,NombreEstacion,Latitud,Longitud,Altitud,Categoria,Entidad,AreaOperativa,Departamento,Municipio,FechaInstalacion,FechaSuspension,IdParametro,Etiqueta,DescripcionSerie,Frecuencia,Fecha,Valor,Grado,Calificador,NivelAprobacion,SatValue,SatDesc
31,35030110,ALTO DEL GORRO  [35030110],4.483333333,-73.73333333,3750,Pluviométrica,EMPRESA DE ACUEDUCTO Y ALCANTARILLADO DE BOGOTA E.S.P,Area Operativa 11 - Cundinamarca-Amazonas,Cundinamarca,Fómeque,1969-11-15,,PRECIPITACION,PTPM_TT_M,Precipitación total mensual,Mensual,1987-05-01,74.1,50,,900,242.60774,chirps-v2.0.1987.05.tif
725,35060200,AMOLADERO EL [35060200],4.857972222,-73.74538889,2963,Pluviométrica,INSTITUTO DE HIDROLOGIA METEOROLOGIA Y ESTUDIOS AMBIENTALES,Area Operativa 11 - Cundinamarca-Amazonas,Cundinamarca,Guatavita,1972-04-15,,PRECIPITACION,PTPM_TT_M,Precipitación total mensual,Mensual,1987-05-01,341.0,50,,900,139.13751,chirps-v2.0.1987.05.tif
1508,21230090,ARRANCAPLUMAS [21230090],5.20275,-74.72927778,235,Pluviométrica,INSTITUTO DE HIDROLOGIA METEOROLOGIA Y ESTUDIOS AMBIENTALES,Area Operativa 10 - Tolima,Cundinamarca,Guaduas,1980-04-15,,PRECIPITACION,PTPM_TT_M,Precipitación total mensual,Mensual,1987-05-01,187.9,50,,1200,246.32768,chirps-v2.0.1987.05.tif
2377,21205770,BASE AEREA MADRID [21205770],4.728805556,-74.2725,2550,Climática Ordinaria,INSTITUTO DE HIDROLOGIA METEOROLOGIA Y ESTUDIOS AMBIENTALES,Area Operativa 11 - Cundinamarca-Amazonas,Cundinamarca,Madrid,1974-07-15,,PRECIPITACION,PTPM_TT_M,Precipitación total mensual,Mensual,1987-05-01,134.2,50,,900,117.5334,chirps-v2.0.1987.05.tif
3060,21230120,BELLEZA LA [21230120],4.985388889,-74.58111111,1200,Pluviométrica,INSTITUTO DE HIDROLOGIA METEOROLOGIA Y ESTUDIOS AMBIENTALES,Area Operativa 11 - Cundinamarca-Amazonas,Cundinamarca,Chaguaní,1986-12-15,,PRECIPITACION,PTPM_TT_M,Precipitación total mensual,Mensual,1987-05-01,266.7,50,,900,167.94395,chirps-v2.0.1987.05.tif
3883,21205480,IBERIA LA  [21205480],5.033333333,-73.71666667,2760,Climática Principal,CORPORACION AUTONOMA REGIONAL DE CUNDINAMARCA,Area Operativa 11 - Cundinamarca-Amazonas,Cundinamarca,Chocontá,1955-08-15,,PRECIPITACION,PTPM_TT_M,Precipitación total mensual,Mensual,1987-05-01,105.3,50,,900,134.12015,chirps-v2.0.1987.05.tif
4039,23060060,ICALI  [23060060],4.95,-74.41666667,1380,Pluviométrica,FEDERACION NACIONAL DE CAFETEROS,Area Operativa 11 - Cundinamarca-Amazonas,Cundinamarca,Sasaima,1965-03-15,,PRECIPITACION,PTPM_TT_M,Precipitación total mensual,Mensual,1987-05-01,306.0,50,,900,187.39645,chirps-v2.0.1987.05.tif
4214,21195120,ITA VALSALICE  - AUT [21195120],4.39292,-74.39272,1421,Climática Principal,INSTITUTO DE HIDROLOGIA METEOROLOGIA Y ESTUDIOS AMBIENTALES,Area Operativa 11 - Cundinamarca-Amazonas,Cundinamarca,Silvania,1989-02-15,,PRECIPITACION,PTPM_TT_M,Precipitación total mensual,Mensual,1987-05-01,139.3,50,,900,139.38516,chirps-v2.0.1987.05.tif
4736,21235010,JERUSALEN [21235010],4.561805556,-74.70238889,297,Climática Ordinaria,INSTITUTO DE HIDROLOGIA METEOROLOGIA Y ESTUDIOS AMBIENTALES,Area Operativa 10 - Tolima,Cundinamarca,Jerusalén,1974-11-15,,PRECIPITACION,PTPM_TT_M,Precipitación total mensual,Mensual,1987-05-01,97.8,50,,1200,179.64221,chirps-v2.0.1987.05.tif
5463,35060050,JUNIN [35060050],4.792222222,-73.66872222,2323,Pluviométrica,INSTITUTO DE HIDROLOGIA METEOROLOGIA Y ESTUDIOS AMBIENTALES,Area Operativa 11 - Cundinamarca-Amazonas,Cundinamarca,Junín,1962-05-15,,PRECIPITACION,PTPM_TT_M,Precipitación total mensual,Mensual,1987-05-01,190.4,50,,900,146.34767,chirps-v2.0.1987.05.tif
6208,24015110,LA BOYERA - AUT [24015110],5.303805556,-73.85175,2610,Climática Principal,INSTITUTO DE HIDROLOGIA METEOROLOGIA Y ESTUDIOS AMBIENTALES,Area Operativa 11 - Cundinamarca-Amazonas,Cundinamarca,Ubaté,1960-03-15,,PRECIPITACION,PTPM_TT_M,Precipitación total mensual,Mensual,1987-05-01,117.4,50,,900,111.52312,chirps-v2.0.1987.05.tif
6368,21205910,LA COSECHA - AUT [21205910],4.98922,-74.00119,2570,Climática Principal,INSTITUTO DE HIDROLOGIA METEOROLOGIA Y ESTUDIOS AMBIENTALES,Area Operativa 11 - Cundinamarca-Amazonas,Cundinamarca,Zipaquirá,1976-09-15,,PRECIPITACION,PTPM_TT_M,Precipitación total mensual,Mensual,1987-05-01,118.7,4,,900,118.58038,chirps-v2.0.1987.05.tif
6789,21201690,LADERA GRANDE  [21201690],5.166666667,-73.86666667,2950,Pluviográfica,CORPORACION AUTONOMA REGIONAL DE CUNDINAMARCA,Area Operativa 11 - Cundinamarca-Amazonas,Cundinamarca,Tausa,1986-09-15,,PRECIPITACION,PTPM_TT_M,Precipitación total mensual,Mensual,1987-05-01,105.3,50,,900,95.190544,chirps-v2.0.1987.05.tif
7419,35030160,LAGUNA CHINGAZA  [35030160],4.533333333,-73.75,3250,Pluviométrica,EMPRESA DE ACUEDUCTO Y ALCANTARILLADO DE BOGOTA E.S.P,Area Operativa 11 - Cundinamarca-Amazonas,Cundinamarca,Fómeque,1966-03-15,,PRECIPITACION,PTPM_TT_M,Precipitación total mensual,Mensual,1987-05-01,181.9,50,,900,208.39287,chirps-v2.0.1987.05.tif
7731,35020380,LAGUNA MARRANOS  [35020380],4.65,-73.83333333,3090,Pluviométrica,EMPRESA DE ACUEDUCTO Y ALCANTARILLADO DE BOGOTA E.S.P,Area Operativa 11 - Cundinamarca-Amazonas,Cundinamarca,La Calera,1979-08-15,,PRECIPITACION,PTPM_TT_M,Precipitación total mensual,Mensual,1987-05-01,165.3,50,,900,219.3656,chirps-v2.0.1987.05.tif
8229,21201190,LAGUNITAS [21201190],5.214527778,-73.90725,3100,Pluviométrica,INSTITUTO DE HIDROLOGIA METEOROLOGIA Y ESTUDIOS AMBIENTALES,Area Operativa 11 - Cundinamarca-Amazonas,Cundinamarca,Tausa,1985-03-15,,PRECIPITACION,PTPM_TT_M,Precipitación total mensual,Mensual,1987-05-01,99.1,50,,900,122.75954,chirps-v2.0.1987.05.tif
8669,35030080,LAS CASAS [35030080],4.441166667,-73.93638889,2100,Pluviográfica,INSTITUTO DE HIDROLOGIA METEOROLOGIA Y ESTUDIOS AMBIENTALES,Area Operativa 11 - Cundinamarca-Amazonas,Cundinamarca,Cáqueza,1986-05-15,,PRECIPITACION,PTPM_TT_M,Precipitación total mensual,Mensual,1987-05-01,110.5,50,,900,182.72304,chirps-v2.0.1987.05.tif
9244,24010070,LETICIA [24010070],5.303194444,-73.70975,2650,Pluviométrica,INSTITUTO DE HIDROLOGIA METEOROLOGIA Y ESTUDIOS AMBIENTALES,Area Operativa 11 - Cundinamarca-Amazonas,Cundinamarca,Lenguazaque,1974-02-15,,PRECIPITACION,PTPM_TT_M,Precipitación total mensual,Mensual,1987-05-01,46.4,50,,900,77.92504,chirps-v2.0.1987.05.tif
10180,21201330,LOCAL EL  [21201330],4.983333333,-73.7,2950,Pluviográfica,CORPORACION AUTONOMA REGIONAL DE CUNDINAMARCA,Area Operativa 11 - Cundinamarca-Amazonas,Cundinamarca,Sesquilé,1980-06-15,,PRECIPITACION,PTPM_TT_M,Precipitación total mensual,Mensual,1987-05-01,20.1,50,,900,128.78384,chirps-v2.0.1987.05.tif
10250,21201050,LOURDES [21201050],4.982888889,-73.86466667,2750,Pluviométrica,INSTITUTO DE HIDROLOGIA METEOROLOGIA Y ESTUDIOS AMBIENTALES,Area Operativa 11 - Cundinamarca-Amazonas,Cundinamarca,Gachancipá,1985-03-15,,PRECIPITACION,PTPM_TT_M,Precipitación total mensual,Mensual,1987-05-01,124.7,50,,900,118.49724,chirps-v2.0.1987.05.tif
10750,35070230,MACHETA GRANJA AGROP [35070230],5.075111111,-73.57941667,1815,Pluviográfica,INSTITUTO DE HIDROLOGIA METEOROLOGIA Y ESTUDIOS AMBIENTALES,Area Operativa 11 - Cundinamarca-Amazonas,Cundinamarca,Machetá,1979-12-15,,PRECIPITACION,PTPM_TT_M,Precipitación total mensual,Mensual,1987-05-01,155.9,50,,900,85.850876,chirps-v2.0.1987.05.tif
11168,21201740,MANJUI  [21201740],4.8,-74.38333333,3260,Pluviométrica,CORPORACION AUTONOMA REGIONAL DE CUNDINAMARCA,Area Operativa 11 - Cundinamarca-Amazonas,Cundinamarca,Facatativá,1963-04-15,,PRECIPITACION,PTPM_TT_M,Precipitación total mensual,Mensual,1987-05-01,0.0,50,,900,150.84207,chirps-v2.0.1987.05.tif
11770,21200710,MARGARITAS LAS  [21200710],4.833333333,-74.25,2606,Pluviométrica,CORPORACION AUTONOMA REGIONAL DE CUNDINAMARCA,Area Operativa 11 - Cundinamarca-Amazonas,Cundinamarca,Subachoque,1959-08-15,,PRECIPITACION,PTPM_TT_M,Precipitación total mensual,Mensual,1987-05-01,264.5,50,,900,114.173004,chirps-v2.0.1987.05.tif
12005,21205660,MERCEDES - AUT [21205660],4.5791,-74.52318,765,Climática Principal,INSTITUTO DE HIDROLOGIA METEOROLOGIA Y ESTUDIOS AMBIENTALES,Area Operativa 11 - Cundinamarca-Amazonas,Cundinamarca,Anapoima,1970-09-15,,PRECIPITACION,PTPM_TT_M,Precipitación total mensual,Mensual,1987-05-01,115.2,4,,900,147.14223,chirps-v2.0.1987.05.tif
12433,21206390,MESA LA  [21206390],4.633333333,-74.43333333,1300,Climática Principal,CORPORACION AUTONOMA REGIONAL DE CUNDINAMARCA,Area Operativa 11 - Cundinamarca-Amazonas,Cundinamarca,La Mesa,1985-09-15,,PRECIPITACION,PTPM_TT_M,Precipitación total mensual,Mensual,1987-05-01,186.7,50,,900,142.97621,chirps-v2.0.1987.05.tif
12842,21206080,MESITAS D STA INES  [21206080],4.666666667,-74.46666667,1250,Climática Ordinaria,FEDERACION NACIONAL DE CAFETEROS,Area Operativa 11 - Cundinamarca-Amazonas,Cundinamarca,Cachipay,1966-01-15,,PRECIPITACION,PTPM_TT_M,Precipitación total mensual,Mensual,1987-05-01,130.0,50,,900,169.97713,chirps-v2.0.1987.05.tif
13054,35060130,MINAS LAS [35060130],4.675166667,-73.48213889,23,Pluviométrica,INSTITUTO DE HIDROLOGIA METEOROLOGIA Y ESTUDIOS AMBIENTALES,Area Operativa 11 - Cundinamarca-Amazonas,Cundinamarca,Gachalá,1973-04-15,,PRECIPITACION,PTPM_TT_M,Precipitación total mensual,Mensual,1987-05-01,433.4,4,,900,313.59546,chirps-v2.0.1987.05.tif
13660,21206070,MISIONES  [21206070],4.566666667,-74.3,1540,Climática Ordinaria,FEDERACION NACIONAL DE CAFETEROS,Area Operativa 11 - Cundinamarca-Amazonas,Cundinamarca,El Colegio,1977-02-15,,PRECIPITACION,PTPM_TT_M,Precipitación total mensual,Mensual,1987-05-01,222.9,50,,900,120.35344,chirps-v2.0.1987.05.tif
14110,35020010,MONTERREDONDO [35020010],4.2483,-73.8187,1467,Pluviométrica,INSTITUTO DE HIDROLOGIA METEOROLOGIA Y ESTUDIOS AMBIENTALES,Area Operativa 03 - Meta-Guaviare-Guainía,Cundinamarca,Guayabetal,1951-07-15,,PRECIPITACION,PTPM_TT_M,Precipitación total mensual,Mensual,1987-05-01,220.9,50,,1200,264.04312,chirps-v2.0.1987.05.tif
15038,35020390,MUNDONUEVO  [35020390],4.683333333,-73.86666667,2400,Pluviométrica,EMPRESA DE ACUEDUCTO Y ALCANTARILLADO DE BOGOTA E.S.P,Area Operativa 11 - Cundinamarca-Amazonas,Cundinamarca,La Calera,1971-01-15,,PRECIPITACION,PTPM_TT_M,Precipitación total mensual,Mensual,1987-05-01,217.0,50,,900,145.88174,chirps-v2.0.1987.05.tif
15405,21230110,NARINO RADIO [21230110],4.387805556,-74.838166667,262,Pluviométrica,INSTITUTO DE HIDROLOGIA METEOROLOGIA Y ESTUDIOS AMBIENTALES,Area Operativa 10 - Tolima,Cundinamarca,Nariño,1980-01-15,,PRECIPITACION,PTPM_TT_M,Precipitación total mensual,Mensual,1987-05-01,272.0,50,,900,190.32373,chirps-v2.0.1987.05.tif
15976,21230060,NARINO [21230060],4.398611111,-74.82555556,289,Pluviométrica,INSTITUTO DE HIDROLOGIA METEOROLOGIA Y ESTUDIOS AMBIENTALES,Area Operativa 10 - Tolima,Cundinamarca,Nariño,1974-11-15,,PRECIPITACION,PTPM_TT_M,Precipitación total mensual,Mensual,1987-05-01,190.5,50,,1200,190.32373,chirps-v2.0.1987.05.tif
16576,21190210,NILO [21190210],4.305888889,-74.64866667,322,Pluviométrica,INSTITUTO DE HIDROLOGIA METEOROLOGIA Y ESTUDIOS AMBIENTALES,Area Operativa 10 - Tolima,Cundinamarca,Nilo,1971-11-15,,PRECIPITACION,PTPM_TT_M,Precipitación total mensual,Mensual,1987-05-01,185.0,50,,1200,179.42303,chirps-v2.0.1987.05.tif
17246,24015190,NOVILLEROS  [24015190],5.333333333,-73.78333333,2550,Climática Ordinaria,CORPORACION AUTONOMA REGIONAL DE CUNDINAMARCA,Area Operativa 11 - Cundinamarca-Amazonas,Cundinamarca,Ubaté,1965-12-15,,PRECIPITACION,PTPM_TT_M,Precipitación total mensual,Mensual,1987-05-01,104.9,50,,900,79.483406,chirps-v2.0.1987.05.tif
17547,21200160,PANONIA [21200160],5.057972222,-73.73433333,2800,Pluviométrica,INSTITUTO DE HIDROLOGIA METEOROLOGIA Y ESTUDIOS AMBIENTALES,Area Operativa 11 - Cundinamarca-Amazonas,Cundinamarca,Chocontá,1985-03-15,,PRECIPITACION,PTPM_TT_M,Precipitación total mensual,Mensual,1987-05-01,51.4,50,,900,95.51228,chirps-v2.0.1987.05.tif
18496,21201060,PANTANO REDONDO 1 [21201060],5.04325,-74.03338889,3160,Pluviográfica,INSTITUTO DE HIDROLOGIA METEOROLOGIA Y ESTUDIOS AMBIENTALES,Area Operativa 11 - Cundinamarca-Amazonas,Cundinamarca,Zipaquirá,1951-01-15,,PRECIPITACION,PTPM_TT_M,Precipitación total mensual,Mensual,1987-05-01,218.1,50,,900,140.44485,chirps-v2.0.1987.05.tif
19344,21200380,PANTANO REDONDO 2  [21200380],5.033333333,-74.03333333,3000,Pluviográfica,ESTACIONES PARTICULARES,Area Operativa 11 - Cundinamarca-Amazonas,Cundinamarca,Zipaquirá,1950-08-15,,PRECIPITACION,PTPM_TT_M,Precipitación total mensual,Mensual,1987-05-01,0.0,50,,900,140.44485,chirps-v2.0.1987.05.tif
19723,23060040,PARAISO EL  [23060040],5.316666667,-74.48333333,1450,Pluviométrica,FEDERACION NACIONAL DE CAFETEROS,Area Operativa 11 - Cundinamarca-Amazonas,Cundinamarca,Caparrapí,1982-01-15,,PRECIPITACION,PTPM_TT_M,Precipitación total mensual,Mensual,1987-05-01,102.0,50,,900,235.56563,chirps-v2.0.1987.05.tif
19853,21201340,PARQUE SOPO  [21201340],4.75,-74.01666667,2540,Pluviográfica,CORPORACION AUTONOMA REGIONAL DE CUNDINAMARCA,Area Operativa 11 - Cundinamarca-Amazonas,Cundinamarca,Sopó,1980-03-15,,PRECIPITACION,PTPM_TT_M,Precipitación total mensual,Mensual,1987-05-01,106.3,50,,900,94.53363,chirps-v2.0.1987.05.tif
20388,21195190,PASCA - AUT [21195190],4.310111111,-74.31175,2256,Agrometeorológica,INSTITUTO DE HIDROLOGIA METEOROLOGIA Y ESTUDIOS AMBIENTALES,Area Operativa 11 - Cundinamarca-Amazonas,Cundinamarca,Pasca,2005-08-26,,PRECIPITACION,PTPM_TT_M,Precipitación total mensual,Mensual,1987-05-01,73.1,50,,900,92.112465,chirps-v2.0.1987.05.tif
20983,24010490,PEDREGAL EL  [24010490],5.233333333,-73.86666667,2900,Pluviométrica,CORPORACION AUTONOMA REGIONAL DE CUNDINAMARCA,Area Operativa 11 - Cundinamarca-Amazonas,Cundinamarca,Sutatausa,1966-08-15,,PRECIPITACION,PTPM_TT_M,Precipitación total mensual,Mensual,1987-05-01,212.0,50,,900,111.94168,chirps-v2.0.1987.05.tif
21254,23060180,PENON EL [23060180],5.253444444,-74.2945,1400,Pluviométrica,INSTITUTO DE HIDROLOGIA METEOROLOGIA Y ESTUDIOS AMBIENTALES,Area Operativa 11 - Cundinamarca-Amazonas,Cundinamarca,El Peñón,1974-09-15,,PRECIPITACION,PTPM_TT_M,Precipitación total mensual,Mensual,1987-05-01,298.0,50,,900,229.94461,chirps-v2.0.1987.05.tif
21746,21190060,PINAR DEL RIO  [21190060],4.366666667,-74.35,1750,Pluviométrica,FEDERACION NACIONAL DE CAFETEROS,Area Operativa 11 - Cundinamarca-Amazonas,Cundinamarca,Silvania,1982-01-15,,PRECIPITACION,PTPM_TT_M,Precipitación total mensual,Mensual,1987-05-01,274.0,50,,900,139.38516,chirps-v2.0.1987.05.tif
21919,21190310,PINAR EL [21190310],4.387972222,-74.32991667,1900,Pluviométrica,INSTITUTO DE HIDROLOGIA METEOROLOGIA Y ESTUDIOS AMBIENTALES,Area Operativa 11 - Cundinamarca-Amazonas,Cundinamarca,Fusagasugá,1980-08-15,,PRECIPITACION,PTPM_TT_M,Precipitación total mensual,Mensual,1987-05-01,115.8,50,,900,106.3091,chirps-v2.0.1987.05.tif
22839,23120190,PINOS LOS  [23120190],5.233333333,-74.03333333,3477,Pluviométrica,CORPORACION AUTONOMA REGIONAL DE CUNDINAMARCA,Area Operativa 11 - Cundinamarca-Amazonas,Cundinamarca,Tausa,1972-12-15,,PRECIPITACION,PTPM_TT_M,Precipitación total mensual,Mensual,1987-05-01,166.0,50,,900,140.48668,chirps-v2.0.1987.05.tif
22908,21200620,PISCIS [21200620],5.079166667,-73.69686111,2820,Pluviométrica,INSTITUTO DE HIDROLOGIA METEOROLOGIA Y ESTUDIOS AMBIENTALES,Area Operativa 11 - Cundinamarca-Amazonas,Cundinamarca,Chocontá,1985-03-15,,PRECIPITACION,PTPM_TT_M,Precipitación total mensual,Mensual,1987-05-01,172.7,50,,900,93.90277,chirps-v2.0.1987.05.tif
23375,35030170,PLAYA LA  [35030170],4.55,-73.76666667,3100,Pluviométrica,EMPRESA DE ACUEDUCTO Y ALCANTARILLADO DE BOGOTA E.S.P,Area Operativa 11 - Cundinamarca-Amazonas,Cundinamarca,Fómeque,1966-03-15,,PRECIPITACION,PTPM_TT_M,Precipitación total mensual,Mensual,1987-05-01,83.2,50,,900,177.45267,chirps-v2.0.1987.05.tif
23711,21201260,PORVENIR EL  [21201260],4.55,-74.31666667,1350,Pluviométrica,FEDERACION NACIONAL DE CAFETEROS,Area Operativa 11 - Cundinamarca-Amazonas,Cundinamarca,El Colegio,1952-02-15,,PRECIPITACION,PTPM_TT_M,Precipitación total mensual,Mensual,1987-05-01,291.1,50,,900,120.35344,chirps-v2.0.1987.05.tif
24053,35060160,POTRERITOS [35060160],4.828805556,-73.76927778,2802,Pluviométrica,INSTITUTO DE HIDROLOGIA METEOROLOGIA Y ESTUDIOS AMBIENTALES,Area Operativa 11 - Cundinamarca-Amazonas,Cundinamarca,Guatavita,1972-08-15,,PRECIPITACION,PTPM_TT_M,Precipitación total mensual,Mensual,1987-05-01,202.0,50,,900,128.96318,chirps-v2.0.1987.05.tif
24494,21200780,POTRERO LARGO [21200780],4.929222222,-73.78047222,2780,Pluviométrica,INSTITUTO DE HIDROLOGIA METEOROLOGIA Y ESTUDIOS AMBIENTALES,Area Operativa 11 - Cundinamarca-Amazonas,Cundinamarca,Guatavita,1985-03-15,,PRECIPITACION,PTPM_TT_M,Precipitación total mensual,Mensual,1987-05-01,94.1,50,,900,118.73502,chirps-v2.0.1987.05.tif
25283,21200440,PRADERA LA  [21200440],5.0,-74.13333333,2703,Pluviométrica,CORPORACION AUTONOMA REGIONAL DE CUNDINAMARCA,Area Operativa 11 - Cundinamarca-Amazonas,Cundinamarca,Subachoque,1951-09-15,,PRECIPITACION,PTPM_TT_M,Precipitación total mensual,Mensual,1987-05-01,148.0,50,,900,148.1605,chirps-v2.0.1987.05.tif
25353,21201310,PREVENTORIO INFANT [21201310],4.465444444,-74.2675,2650,Pluviométrica,INSTITUTO DE HIDROLOGIA METEOROLOGIA Y ESTUDIOS AMBIENTALES,Area Operativa 11 - Cundinamarca-Amazonas,Cundinamarca,Sibaté,1985-03-15,,PRECIPITACION,PTPM_TT_M,Precipitación total mensual,Mensual,1987-05-01,117.8,50,,900,126.13737,chirps-v2.0.1987.05.tif
26448,21205570,PRIMAVERA LA  [21205570],4.85,-74.21666667,2590,Climática Principal,CORPORACION AUTONOMA REGIONAL DE CUNDINAMARCA,Area Operativa 11 - Cundinamarca-Amazonas,Cundinamarca,Subachoque,1965-06-15,,PRECIPITACION,PTPM_TT_M,Precipitación total mensual,Mensual,1987-05-01,150.0,50,,900,139.81895,chirps-v2.0.1987.05.tif
27357,24010380,PTE EL  [24010380],5.35,-73.66666667,2810,Pluviográfica,CORPORACION AUTONOMA REGIONAL DE CUNDINAMARCA,Area Operativa 11 - Cundinamarca-Amazonas,Cundinamarca,Guachetá,1962-12-15,,PRECIPITACION,PTPM_TT_M,Precipitación total mensual,Mensual,1987-05-01,0.0,50,,900,90.153854,chirps-v2.0.1987.05.tif
28237,21205160,RAMADA LA  [21205160],4.716666667,-74.18333333,2545,Climática Ordinaria,CORPORACION AUTONOMA REGIONAL DE CUNDINAMARCA,Area Operativa 11 - Cundinamarca-Amazonas,Cundinamarca,Funza,1937-12-15,,PRECIPITACION,PTPM_TT_M,Precipitación total mensual,Mensual,1987-05-01,94.5,50,,900,93.28652,chirps-v2.0.1987.05.tif
28513,21201370,REFUGIO EL  [21201370],4.65,-74.46666667,1250,Pluviométrica,FEDERACION NACIONAL DE CAFETEROS,Area Operativa 11 - Cundinamarca-Amazonas,Cundinamarca,La Mesa,1977-08-15,,PRECIPITACION,PTPM_TT_M,Precipitación total mensual,Mensual,1987-05-01,237.0,50,,900,169.97713,chirps-v2.0.1987.05.tif
28920,21205410,REPRESA DEL NEUSA  [21205410],5.15,-73.98333333,3100,Climática Principal,CORPORACION AUTONOMA REGIONAL DE CUNDINAMARCA,Area Operativa 11 - Cundinamarca-Amazonas,Cundinamarca,Cogua,1947-05-15,,PRECIPITACION,PTPM_TT_M,Precipitación total mensual,Mensual,1987-05-01,134.0,50,,900,110.582954,chirps-v2.0.1987.05.tif
29272,21201710,REPRESA SISGA  [21201710],5.083333333,-73.73333333,2675,Pluviográfica,CORPORACION AUTONOMA REGIONAL DE CUNDINAMARCA,Area Operativa 11 - Cundinamarca-Amazonas,Cundinamarca,Chocontá,1966-07-15,,PRECIPITACION,PTPM_TT_M,Precipitación total mensual,Mensual,1987-05-01,114.0,50,,900,95.51228,chirps-v2.0.1987.05.tif
29916,21205390,REPRESA SISGA  [21205390],5.083333333,-73.73333333,2675,Climática Ordinaria,CORPORACION AUTONOMA REGIONAL DE CUNDINAMARCA,Area Operativa 11 - Cundinamarca-Amazonas,Cundinamarca,Chocontá,1939-11-15,,PRECIPITACION,PTPM_TT_M,Precipitación total mensual,Mensual,1987-05-01,114.0,50,,900,95.51228,chirps-v2.0.1987.05.tif
30251,21201550,ROBLE EL [21201550],4.796666667,-74.22638889,2560,Pluviométrica,INSTITUTO DE HIDROLOGIA METEOROLOGIA Y ESTUDIOS AMBIENTALES,Area Operativa 11 - Cundinamarca-Amazonas,Cundinamarca,Madrid,1985-07-15,,PRECIPITACION,PTPM_TT_M,Precipitación total mensual,Mensual,1987-05-01,133.1,50,,900,117.350975,chirps-v2.0.1987.05.tif
30731,23065100,SABANETA [23065100],4.90175,-74.30738889,2475,Climática Ordinaria,INSTITUTO DE HIDROLOGIA METEOROLOGIA Y ESTUDIOS AMBIENTALES,Area Operativa 11 - Cundinamarca-Amazonas,Cundinamarca, La Vega,1986-08-15,,PRECIPITACION,PTPM_TT_M,Precipitación total mensual,Mensual,1987-05-01,129.2,50,,900,176.2134,chirps-v2.0.1987.05.tif
31328,21200880,SALITRE EL - NEUSA  [21200880],5.183333333,-74.0,3140,Pluviográfica,CORPORACION AUTONOMA REGIONAL DE CUNDINAMARCA,Area Operativa 11 - Cundinamarca-Amazonas,Cundinamarca,Tausa,1955-04-15,,PRECIPITACION,PTPM_TT_M,Precipitación total mensual,Mensual,1987-05-01,46.8,4,,900,125.39926,chirps-v2.0.1987.05.tif
31815,23125070,SAN CAYETANO [23125070],5.3,-74.06666667,2200,Climática Ordinaria,INSTITUTO DE HIDROLOGIA METEOROLOGIA Y ESTUDIOS AMBIENTALES,Area Operativa 11 - Cundinamarca-Amazonas,Cundinamarca,San Cayetano,1974-09-15,2008-12-11 00:00:00,PRECIPITACION,PTPM_TT_M,Precipitación total mensual,Mensual,1987-05-01,145.1,50,,900,186.2518,chirps-v2.0.1987.05.tif
32234,21201610,SAN ISIDRO [21201610],4.850288889,-73.89072222,2698,Pluviométrica,INSTITUTO DE HIDROLOGIA METEOROLOGIA Y ESTUDIOS AMBIENTALES,Area Operativa 11 - Cundinamarca-Amazonas,Cundinamarca,Guasca,1987-05-15,,PRECIPITACION,PTPM_TT_M,Precipitación total mensual,Mensual,1987-05-01,88.2,4,,900,117.99956,chirps-v2.0.1987.05.tif
32911,21201720,SAN JORGE GJA  [21201720],4.516666667,-74.2,2890,Pluviográfica,CORPORACION AUTONOMA REGIONAL DE CUNDINAMARCA,Area Operativa 11 - Cundinamarca-Amazonas,Cundinamarca,Soacha,1960-04-15,,PRECIPITACION,PTPM_TT_M,Precipitación total mensual,Mensual,1987-05-01,62.2,50,,900,127.89084,chirps-v2.0.1987.05.tif
33508,21205720,SAN JORGE GRANJA [21205720],4.50575,-74.18927778,2900,Climática Ordinaria,INSTITUTO DE HIDROLOGIA METEOROLOGIA Y ESTUDIOS AMBIENTALES,Area Operativa 11 - Cundinamarca-Amazonas,Cundinamarca,Soacha,1960-04-15,,PRECIPITACION,PTPM_TT_M,Precipitación total mensual,Mensual,1987-05-01,103.1,50,,900,110.38191,chirps-v2.0.1987.05.tif
34218,21200800,SAN JOSE  [21200800],4.983333333,-73.9,2700,Pluviográfica,CORPORACION AUTONOMA REGIONAL DE CUNDINAMARCA,Area Operativa 11 - Cundinamarca-Amazonas,Cundinamarca,Guasca,1960-10-15,,PRECIPITACION,PTPM_TT_M,Precipitación total mensual,Mensual,1987-05-01,60.7,50,,900,126.591225,chirps-v2.0.1987.05.tif
34643,21230080,SAN JUAN  [21230080],4.85,-74.66666667,1300,Pluviométrica,FEDERACION NACIONAL DE CAFETEROS,Area Operativa 10 - Tolima,Cundinamarca,San Juan De Rioseco,1982-01-15,,PRECIPITACION,PTPM_TT_M,Precipitación total mensual,Mensual,1987-05-01,126.7,50,,900,145.92801,chirps-v2.0.1987.05.tif
34883,21230070,SAN JUAN D RIOSECO [21230070],4.851277778,-74.62283333,1364,Pluviométrica,INSTITUTO DE HIDROLOGIA METEOROLOGIA Y ESTUDIOS AMBIENTALES,Area Operativa 10 - Tolima,Cundinamarca,San Juan De Rioseco,1974-12-15,,PRECIPITACION,PTPM_TT_M,Precipitación total mensual,Mensual,1987-05-01,126.3,50,,1200,187.33273,chirps-v2.0.1987.05.tif
35888,35030260,SAN LUIS  [35030260],4.483333333,-73.65,2959,Pluviométrica,EMPRESA DE ACUEDUCTO Y ALCANTARILLADO DE BOGOTA E.S.P,Area Operativa 11 - Cundinamarca-Amazonas,Cundinamarca,Fómeque,1990-08-15,,PRECIPITACION,PTPM_TT_M,Precipitación total mensual,Mensual,1987-05-01,172.5,50,,900,281.28827,chirps-v2.0.1987.05.tif
36258,21201250,SAN PEDRO [21201250],4.871638889,-73.96666667,2560,Pluviométrica,INSTITUTO DE HIDROLOGIA METEOROLOGIA Y ESTUDIOS AMBIENTALES,Area Operativa 11 - Cundinamarca-Amazonas,Cundinamarca,Sopó,1980-06-15,2013-02-15 00:00:00,PRECIPITACION,PTPM_TT_M,Precipitación total mensual,Mensual,1987-05-01,98.7,50,,900,103.29468,chirps-v2.0.1987.05.tif
37178,21200110,SAN RAFAEL 1  [21200110],4.7,-73.98333333,2750,Pluviométrica,EMPRESA DE ACUEDUCTO Y ALCANTARILLADO DE BOGOTA E.S.P,Area Operativa 11 - Cundinamarca-Amazonas,Cundinamarca,La Calera,1933-05-15,,PRECIPITACION,PTPM_TT_M,Precipitación total mensual,Mensual,1987-05-01,125.7,50,,900,90.44469,chirps-v2.0.1987.05.tif
37549,21206980,SANTA CRUZ DE SIECHA  - AUT [21206980],4.784277778,-73.87080556,3100,Agrometeorológica,INSTITUTO DE HIDROLOGIA METEOROLOGIA Y ESTUDIOS AMBIENTALES,Area Operativa 11 - Cundinamarca-Amazonas,Cundinamarca,Guasca,2005-11-08,,PRECIPITACION,PTPM_TT_M,Precipitación total mensual,Mensual,1987-05-01,118.4,50,,900,116.352196,chirps-v2.0.1987.05.tif
38667,21200750,BOJACA  [21200750],4.733333333,-74.33333333,2603,Pluviométrica,CORPORACION AUTONOMA REGIONAL DE CUNDINAMARCA,Area Operativa 11 - Cundinamarca-Amazonas,Cundinamarca,Bojacá,1960-03-15,,PRECIPITACION,PTPM_TT_M,Precipitación total mensual,Mensual,1987-05-01,72.0,50,,900,123.35363,chirps-v2.0.1987.05.tif
39675,23065120,CABRERA LA AUT [23065120],5.141555556,-74.13936111,20,Climática Principal,INSTITUTO DE HIDROLOGIA METEOROLOGIA Y ESTUDIOS AMBIENTALES,Area Operativa 11 - Cundinamarca-Amazonas,Cundinamarca,Pacho,1974-09-15,,PRECIPITACION,PTPM_TT_M,Precipitación total mensual,Mensual,1987-05-01,205.6,4,,900,161.84491,chirps-v2.0.1987.05.tif
40106,21201730,CAMPOBELLO  [21201730],4.766666667,-74.36666667,2490,Pluviométrica,CORPORACION AUTONOMA REGIONAL DE CUNDINAMARCA,Area Operativa 11 - Cundinamarca-Amazonas,Cundinamarca,Madrid,1985-07-15,,PRECIPITACION,PTPM_TT_M,Precipitación total mensual,Mensual,1987-05-01,157.4,50,,900,136.63216,chirps-v2.0.1987.05.tif
40154,23060070,CANAIMA  [23060070],5.35,-74.41666667,1550,Pluviométrica,FEDERACION NACIONAL DE CAFETEROS,Area Operativa 11 - Cundinamarca-Amazonas,Cundinamarca,La Palma,1991-01-15,,PRECIPITACION,PTPM_TT_M,Precipitación total mensual,Mensual,1987-05-01,266.7,50,,900,249.90436,chirps-v2.0.1987.05.tif
41379,21200270,SAUCIO  [21200270],5.108833333,-73.70627778,2640,Pluviográfica,CORPORACION AUTONOMA REGIONAL DE CUNDINAMARCA,Area Operativa 11 - Cundinamarca-Amazonas,Cundinamarca,Chocontá,1947-06-15,,PRECIPITACION,PTPM_TT_M,Precipitación total mensual,Mensual,1987-05-01,147.0,4,,900,90.378265,chirps-v2.0.1987.05.tif
42259,21200510,SIBATE APOSTOLICA  [21200510],4.516666667,-74.25,2618,Pluviográfica,CORPORACION AUTONOMA REGIONAL DE CUNDINAMARCA,Area Operativa 11 - Cundinamarca-Amazonas,Cundinamarca,Sibaté,1956-05-15,,PRECIPITACION,PTPM_TT_M,Precipitación total mensual,Mensual,1987-05-01,87.6,4,,900,134.3356,chirps-v2.0.1987.05.tif
42555,23060290,SILENCIO EL [23060290],4.973166667,-74.41205556,1425,Pluviométrica,INSTITUTO DE HIDROLOGIA METEOROLOGIA Y ESTUDIOS AMBIENTALES,Area Operativa 11 - Cundinamarca-Amazonas,Cundinamarca,Sasaima,1986-03-15,,PRECIPITACION,PTPM_TT_M,Precipitación total mensual,Mensual,1987-05-01,296.6,50,,900,187.39645,chirps-v2.0.1987.05.tif
43136,21205740,SILOS [21205740],5.117722222,-73.70141667,2709,Climática Ordinaria,INSTITUTO DE HIDROLOGIA METEOROLOGIA Y ESTUDIOS AMBIENTALES,Area Operativa 11 - Cundinamarca-Amazonas,Cundinamarca,Chocontá,1974-03-15,,PRECIPITACION,PTPM_TT_M,Precipitación total mensual,Mensual,1987-05-01,127.1,50,,900,90.378265,chirps-v2.0.1987.05.tif
43835,21201360,STA INES  [21201360],4.816666667,-74.13333333,2550,Pluviométrica,CORPORACION AUTONOMA REGIONAL DE CUNDINAMARCA,Area Operativa 11 - Cundinamarca-Amazonas,Cundinamarca,Tenjo,1980-03-15,,PRECIPITACION,PTPM_TT_M,Precipitación total mensual,Mensual,1987-05-01,103.0,50,,900,96.67944,chirps-v2.0.1987.05.tif
44309,21201760,STA ISABEL  [21201760],4.983333333,-74.06666667,2680,Pluviométrica,CORPORACION AUTONOMA REGIONAL DE CUNDINAMARCA,Area Operativa 11 - Cundinamarca-Amazonas,Cundinamarca,Tabio,1968-05-15,,PRECIPITACION,PTPM_TT_M,Precipitación total mensual,Mensual,1987-05-01,0.0,50,,900,120.672165,chirps-v2.0.1987.05.tif
44682,21201030,STA TERESA  [21201030],4.666666667,-73.93333333,3080,Pluviográfica,CORPORACION AUTONOMA REGIONAL DE CUNDINAMARCA,Area Operativa 11 - Cundinamarca-Amazonas,Cundinamarca,La Calera,1970-09-15,,PRECIPITACION,PTPM_TT_M,Precipitación total mensual,Mensual,1987-05-01,105.7,50,,900,125.351814,chirps-v2.0.1987.05.tif
44978,21201620,SUESCA [21201620],5.109583333,-73.79697222,2575,Pluviométrica,INSTITUTO DE HIDROLOGIA METEOROLOGIA Y ESTUDIOS AMBIENTALES,Area Operativa 11 - Cundinamarca-Amazonas,Cundinamarca,Suesca,1987-05-15,2019-05-03 14:59:00,PRECIPITACION,PTPM_TT_M,Precipitación total mensual,Mensual,1987-05-01,91.3,4,,900,106.29708,chirps-v2.0.1987.05.tif
45406,35060020,SUEVA [35060020],4.81,-73.70716667,1965,Pluviométrica,INSTITUTO DE HIDROLOGIA METEOROLOGIA Y ESTUDIOS AMBIENTALES,Area Operativa 11 - Cundinamarca-Amazonas,Cundinamarca,Junín,1972-07-15,,PRECIPITACION,PTPM_TT_M,Precipitación total mensual,Mensual,1987-05-01,169.7,50,,900,141.98615,chirps-v2.0.1987.05.tif
45941,23060200,SUPATA [23060200],5.059694444,-74.239166667,1798,Pluviométrica,INSTITUTO DE HIDROLOGIA METEOROLOGIA Y ESTUDIOS AMBIENTALES,Area Operativa 11 - Cundinamarca-Amazonas,Cundinamarca,Supata,1974-09-15,,PRECIPITACION,PTPM_TT_M,Precipitación total mensual,Mensual,1987-05-01,257.9,50,,900,194.85027,chirps-v2.0.1987.05.tif
46628,24015210,SUTATAUSA  [24015210],5.25,-73.85,2700,Climática Ordinaria,CORPORACION AUTONOMA REGIONAL DE CUNDINAMARCA,Area Operativa 11 - Cundinamarca-Amazonas,Cundinamarca,Sutatausa,1965-04-15,,PRECIPITACION,PTPM_TT_M,Precipitación total mensual,Mensual,1987-05-01,53.0,4,,900,119.022766,chirps-v2.0.1987.05.tif
47033,21205650,TABIO  [21205650],4.766666667,-73.93333333,2620,Climática Principal,CORPORACION AUTONOMA REGIONAL DE CUNDINAMARCA,Area Operativa 11 - Cundinamarca-Amazonas,Cundinamarca,Tabio,1970-07-15,,PRECIPITACION,PTPM_TT_M,Precipitación total mensual,Mensual,1987-05-01,119.6,50,,900,115.164444,chirps-v2.0.1987.05.tif
47976,24010280,TAPIAS  [24010280],5.3,-73.71666667,2585,Pluviográfica,CORPORACION AUTONOMA REGIONAL DE CUNDINAMARCA,Area Operativa 11 - Cundinamarca-Amazonas,Cundinamarca,Lenguazaque,1960-03-15,,PRECIPITACION,PTPM_TT_M,Precipitación total mensual,Mensual,1987-05-01,120.1,50,,900,77.92504,chirps-v2.0.1987.05.tif
48304,35060170,TASAJERAS [35060170],4.885694444,-73.60036111,2502,Pluviométrica,INSTITUTO DE HIDROLOGIA METEOROLOGIA Y ESTUDIOS AMBIENTALES,Area Operativa 11 - Cundinamarca-Amazonas,Cundinamarca,Gachetá,1972-02-15,,PRECIPITACION,PTPM_TT_M,Precipitación total mensual,Mensual,1987-05-01,226.6,50,,900,162.48322,chirps-v2.0.1987.05.tif
48889,35060150,TEMBLADARES [35060150],4.704861111,-73.66527778,2878,Pluviométrica,INSTITUTO DE HIDROLOGIA METEOROLOGIA Y ESTUDIOS AMBIENTALES,Area Operativa 11 - Cundinamarca-Amazonas,Cundinamarca,Junín,1972-02-15,,PRECIPITACION,PTPM_TT_M,Precipitación total mensual,Mensual,1987-05-01,272.6,50,,900,163.87445,chirps-v2.0.1987.05.tif
49534,21200690,TESORO-VERTIENTES  [21200690],4.8,-74.31666667,2610,Pluviométrica,CORPORACION AUTONOMA REGIONAL DE CUNDINAMARCA,Area Operativa 11 - Cundinamarca-Amazonas,Cundinamarca,Facatativá,1931-08-15,,PRECIPITACION,PTPM_TT_M,Precipitación total mensual,Mensual,1987-05-01,114.0,50,,900,114.733795,chirps-v2.0.1987.05.tif
50164,21195030,TIBACUY GJA  [21195030],4.35,-74.41666667,1550,Climática Ordinaria,FEDERACION NACIONAL DE CAFETEROS,Area Operativa 11 - Cundinamarca-Amazonas,Cundinamarca,Tibacuy,1951-12-15,,PRECIPITACION,PTPM_TT_M,Precipitación total mensual,Mensual,1987-05-01,139.2,50,,900,103.6562,chirps-v2.0.1987.05.tif
50261,21190030,TIBACUY [21190030],4.348055556,-74.45447222,1635,Pluviográfica,INSTITUTO DE HIDROLOGIA METEOROLOGIA Y ESTUDIOS AMBIENTALES,Area Operativa 11 - Cundinamarca-Amazonas,Cundinamarca,Tibacuy,1986-10-15,,PRECIPITACION,PTPM_TT_M,Precipitación total mensual,Mensual,1987-05-01,128.4,50,,900,148.68588,chirps-v2.0.1987.05.tif
51074,21205420,TIBAITATA [21205420],4.691416667,-74.209,2543,Agrometeorológica,INSTITUTO DE HIDROLOGIA METEOROLOGIA Y ESTUDIOS AMBIENTALES,Area Operativa 11 - Cundinamarca-Amazonas,Cundinamarca,Mosquera,1954-03-15,,PRECIPITACION,PTPM_TT_M,Precipitación total mensual,Mensual,1987-05-01,56.9,50,,900,100.9394,chirps-v2.0.1987.05.tif
51894,21206310,TISQUESUSA  [21206310],4.816666667,-74.31666667,2570,Climática Principal,CORPORACION AUTONOMA REGIONAL DE CUNDINAMARCA,Area Operativa 11 - Cundinamarca-Amazonas,Cundinamarca,Facatativá,1986-10-15,,PRECIPITACION,PTPM_TT_M,Precipitación total mensual,Mensual,1987-05-01,79.1,50,,900,114.733795,chirps-v2.0.1987.05.tif
52076,21201100,TOCAIMA [21201100],4.466666667,-74.65,490,Pluviométrica,INSTITUTO DE HIDROLOGIA METEOROLOGIA Y ESTUDIOS AMBIENTALES,Area Operativa 11 - Cundinamarca-Amazonas,Cundinamarca,Tocaima,1974-11-15,,PRECIPITACION,PTPM_TT_M,Precipitación total mensual,Mensual,1987-05-01,123.5,50,,900,138.0387,chirps-v2.0.1987.05.tif
52640,21201040,TOCANCIPA  [21201040],4.966666667,-73.91666667,2549,Pluviométrica,CORPORACION AUTONOMA REGIONAL DE CUNDINAMARCA,Area Operativa 11 - Cundinamarca-Amazonas,Cundinamarca,Tocancipá,1970-11-15,,PRECIPITACION,PTPM_TT_M,Precipitación total mensual,Mensual,1987-05-01,83.0,50,,900,126.591225,chirps-v2.0.1987.05.tif
52825,35060230,TRES ESQUINAS [35060230],4.781416667,-73.48905556,1943,Pluviométrica,INSTITUTO DE HIDROLOGIA METEOROLOGIA Y ESTUDIOS AMBIENTALES,Area Operativa 11 - Cundinamarca-Amazonas,Cundinamarca,Ubalá,1972-02-15,,PRECIPITACION,PTPM_TT_M,Precipitación total mensual,Mensual,1987-05-01,321.0,50,,900,267.14572,chirps-v2.0.1987.05.tif
53445,23060050,TRIANGULO EL  [23060050],4.966666667,-74.43333333,1500,Pluviométrica,FEDERACION NACIONAL DE CAFETEROS,Area Operativa 11 - Cundinamarca-Amazonas,Cundinamarca,Sasaima,1956-12-15,,PRECIPITACION,PTPM_TT_M,Precipitación total mensual,Mensual,1987-05-01,383.0,50,,900,187.39645,chirps-v2.0.1987.05.tif
53858,23060140,TUSCOLO EL [23060140],5.069444444,-74.608055556,985,Pluviométrica,INSTITUTO DE HIDROLOGIA METEOROLOGIA Y ESTUDIOS AMBIENTALES,Area Operativa 11 - Cundinamarca-Amazonas,Cundinamarca,Guaduas,1971-02-15,,PRECIPITACION,PTPM_TT_M,Precipitación total mensual,Mensual,1987-05-01,191.5,50,,900,198.23819,chirps-v2.0.1987.05.tif
54569,35060180,UBALA [35060180],4.752388889,-73.52858333,1929,Pluviométrica,INSTITUTO DE HIDROLOGIA METEOROLOGIA Y ESTUDIOS AMBIENTALES,Area Operativa 11 - Cundinamarca-Amazonas,Cundinamarca,Ubalá,1959-08-15,,PRECIPITACION,PTPM_TT_M,Precipitación total mensual,Mensual,1987-05-01,288.4,50,,900,220.57243,chirps-v2.0.1987.05.tif
54990,24011090,UBATE GRANJA [24011090],5.327333333,-73.79144444,2555,Pluviográfica,INSTITUTO DE HIDROLOGIA METEOROLOGIA Y ESTUDIOS AMBIENTALES,Area Operativa 11 - Cundinamarca-Amazonas,Cundinamarca,Ubaté,1987-05-15,2010-03-31 00:00:00,PRECIPITACION,PTPM_TT_M,Precipitación total mensual,Mensual,1987-05-01,103.1,50,,900,79.483406,chirps-v2.0.1987.05.tif
55725,35020420,UNE  [35020420],4.4,-74.01666667,2430,Pluviométrica,EMPRESA DE ACUEDUCTO Y ALCANTARILLADO DE BOGOTA E.S.P,Area Operativa 11 - Cundinamarca-Amazonas,Cundinamarca,Une,1947-01-15,,PRECIPITACION,PTPM_TT_M,Precipitación total mensual,Mensual,1987-05-01,117.8,50,,900,155.2001,chirps-v2.0.1987.05.tif
56035,21201320,UNION LA [21201320],4.509361111,-74.26880556,2640,Pluviométrica,INSTITUTO DE HIDROLOGIA METEOROLOGIA Y ESTUDIOS AMBIENTALES,Area Operativa 11 - Cundinamarca-Amazonas,Cundinamarca,Sibaté,1985-03-15,,PRECIPITACION,PTPM_TT_M,Precipitación total mensual,Mensual,1987-05-01,103.5,50,,900,134.3356,chirps-v2.0.1987.05.tif
56731,21200550,UNION LA-EL ROSAL  [21200550],4.866666667,-74.25,2725,Pluviométrica,CORPORACION AUTONOMA REGIONAL DE CUNDINAMARCA,Area Operativa 11 - Cundinamarca-Amazonas,Cundinamarca,Subachoque,1960-01-15,,PRECIPITACION,PTPM_TT_M,Precipitación total mensual,Mensual,1987-05-01,156.0,50,,900,141.30258,chirps-v2.0.1987.05.tif
57311,23060190,UTICA [23060190],5.196083333,-74.4855,497,Pluviométrica,INSTITUTO DE HIDROLOGIA METEOROLOGIA Y ESTUDIOS AMBIENTALES,Area Operativa 11 - Cundinamarca-Amazonas,Cundinamarca,Útica,1974-09-15,,PRECIPITACION,PTPM_TT_M,Precipitación total mensual,Mensual,1987-05-01,139.3,50,,900,224.52362,chirps-v2.0.1987.05.tif
58104,35060120,VEGA LA SAN JUAN [35060120],4.723305556,-73.47055556,1791,Pluviométrica,INSTITUTO DE HIDROLOGIA METEOROLOGIA Y ESTUDIOS AMBIENTALES,Area Operativa 11 - Cundinamarca-Amazonas,Cundinamarca,Gachalá,1972-02-15,,PRECIPITACION,PTPM_TT_M,Precipitación total mensual,Mensual,1987-05-01,364.0,50,,900,308.31897,chirps-v2.0.1987.05.tif
58682,21206290,VENECIA  [21206290],4.866666667,-74.41666667,2673,Climática Principal,CORPORACION AUTONOMA REGIONAL DE CUNDINAMARCA,Area Operativa 11 - Cundinamarca-Amazonas,Cundinamarca,Facatativá,1986-12-15,,PRECIPITACION,PTPM_TT_M,Precipitación total mensual,Mensual,1987-05-01,62.2,50,,900,182.64224,chirps-v2.0.1987.05.tif
59407,21200260,VENTALARGA  [21200260],5.066666667,-74.05,3062,Pluviográfica,CORPORACION AUTONOMA REGIONAL DE CUNDINAMARCA,Area Operativa 11 - Cundinamarca-Amazonas,Cundinamarca,Zipaquirá,1947-06-15,,PRECIPITACION,PTPM_TT_M,Precipitación total mensual,Mensual,1987-05-01,197.0,50,,900,135.82144,chirps-v2.0.1987.05.tif
59806,23060220,VIANI  [23060220],4.866666667,-74.55,1500,Pluviométrica,FEDERACION NACIONAL DE CAFETEROS,Area Operativa 11 - Cundinamarca-Amazonas,Cundinamarca,Vianí,1982-01-15,,PRECIPITACION,PTPM_TT_M,Precipitación total mensual,Mensual,1987-05-01,174.0,50,,900,195.83852,chirps-v2.0.1987.05.tif
59830,21206400,VICTORIA LA  [21206400],4.466666667,-74.6,380,Climática Principal,CORPORACION AUTONOMA REGIONAL DE CUNDINAMARCA,Area Operativa 10 - Tolima,Cundinamarca,Tocaima,1986-12-15,,PRECIPITACION,PTPM_TT_M,Precipitación total mensual,Mensual,1987-05-01,181.3,50,,900,176.27087,chirps-v2.0.1987.05.tif
61514,21201640,VILLAPINZON GRANJA [21201640],5.26375,-73.59086111,2745,Pluviográfica,INSTITUTO DE HIDROLOGIA METEOROLOGIA Y ESTUDIOS AMBIENTALES,Area Operativa 11 - Cundinamarca-Amazonas,Cundinamarca,Villapinzón,1987-05-15,,PRECIPITACION,PTPM_TT_M,Precipitación total mensual,Mensual,1987-05-01,100.2,4,,900,124.17128,chirps-v2.0.1987.05.tif
62379,21201090,VIOTA [21201090],4.442694444,-74.54225,567,Pluviométrica,INSTITUTO DE HIDROLOGIA METEOROLOGIA Y ESTUDIOS AMBIENTALES,Area Operativa 11 - Cundinamarca-Amazonas,Cundinamarca,Viotá,1974-11-15,,PRECIPITACION,PTPM_TT_M,Precipitación total mensual,Mensual,1987-05-01,237.0,50,,900,169.82368,chirps-v2.0.1987.05.tif
63307,21200740,ZIPAQUIRA  [21200740],5.016666667,-74.0,2655,Pluviográfica,CORPORACION AUTONOMA REGIONAL DE CUNDINAMARCA,Area Operativa 11 - Cundinamarca-Amazonas,Cundinamarca,Zipaquirá,1960-02-15,,PRECIPITACION,PTPM_TT_M,Precipitación total mensual,Mensual,1987-05-01,0.0,50,,900,140.44485,chirps-v2.0.1987.05.tif
63904,35070110,GUAYATA LA GRANJA [35070110],4.976083333,-73.49930556,1580,Pluviográfica,INSTITUTO DE HIDROLOGIA METEOROLOGIA Y ESTUDIOS AMBIENTALES,Area Operativa 06 - Boyacá-Casanare-Vichada,Boyacá,Guayatá,1971-07-15,,PRECIPITACION,PTPM_TT_M,Precipitación total mensual,Mensual,1987-05-01,161.8,50,,900,204.94048,chirps-v2.0.1987.05.tif
65255,21205590,APTO GUAYMARAL  [21205590],4.816666667,-74.08333333,2560,Sinóptica Secundaria,CORPORACION AUTONOMA REGIONAL DE CUNDINAMARCA,Area Operativa 11 - Cundinamarca-Amazonas,Bogota,"Bogota, D.C",1965-08-15,,PRECIPITACION,PTPM_TT_M,Precipitación total mensual,Mensual,1987-05-01,85.5,50,,900,108.48271,chirps-v2.0.1987.05.tif
66003,21200080,ARRAYAN-SAN FCO  [21200080],4.583333333,-74.03333333,3047,Pluviométrica,EMPRESA DE ACUEDUCTO Y ALCANTARILLADO DE BOGOTA E.S.P,Area Operativa 11 - Cundinamarca-Amazonas,Bogota,"Bogota, D.C",1925-01-15,,PRECIPITACION,PTPM_TT_M,Precipitación total mensual,Mensual,1987-05-01,173.3,4,,900,94.8739,chirps-v2.0.1987.05.tif
66311,21201300,AUSTRALIA [21201300],4.39425,-74.132,3050,Pluviométrica,INSTITUTO DE HIDROLOGIA METEOROLOGIA Y ESTUDIOS AMBIENTALES,Area Operativa 11 - Cundinamarca-Amazonas,Bogota,"Bogota, D.C",1985-03-15,,PRECIPITACION,PTPM_TT_M,Precipitación total mensual,Mensual,1987-05-01,140.1,50,,900,94.794174,chirps-v2.0.1987.05.tif
66754,35020350,BETANIA [35020350],4.218888889,-74.14686111,3150,Pluviométrica,INSTITUTO DE HIDROLOGIA METEOROLOGIA Y ESTUDIOS AMBIENTALES,Area Operativa 11 - Cundinamarca-Amazonas,Bogota,"Bogota, D.C",1986-01-15,,PRECIPITACION,PTPM_TT_M,Precipitación total mensual,Mensual,1987-05-01,106.0,50,,900,141.87912,chirps-v2.0.1987.05.tif
67739,21200190,BOCA GRANDE  [21200190],4.333333333,-74.13333333,3460,Pluviométrica,EMPRESA DE ACUEDUCTO Y ALCANTARILLADO DE BOGOTA E.S.P,Area Operativa 11 - Cundinamarca-Amazonas,Bogota,"Bogota, D.C",1941-08-15,,PRECIPITACION,PTPM_TT_M,Precipitación total mensual,Mensual,1987-05-01,84.5,50,,900,102.3055,chirps-v2.0.1987.05.tif
68896,21205690,CAMAVIEJA  [21205690],4.616666667,-74.1,2680,Climática Ordinaria,EMPRESA DE ACUEDUCTO Y ALCANTARILLADO DE BOGOTA E.S.P,Area Operativa 11 - Cundinamarca-Amazonas,Bogota,"Bogota, D.C",1957-11-15,,PRECIPITACION,PTPM_TT_M,Precipitación total mensual,Mensual,1987-05-01,127.7,50,,900,93.34456,chirps-v2.0.1987.05.tif
69318,21201970,CASABLANCA  [21201970],4.566666667,-74.16666667,2665,Pluviométrica,EMPRESA DE ACUEDUCTO Y ALCANTARILLADO DE BOGOTA E.S.P,Area Operativa 11 - Cundinamarca-Amazonas,Bogota,"Bogota, D.C",1976-05-15,,PRECIPITACION,PTPM_TT_M,Precipitación total mensual,Mensual,1987-05-01,57.6,50,,900,110.79063,chirps-v2.0.1987.05.tif
70122,21200310,CERRO DE SUBA  [21200310],4.75,-74.06666667,2691,Pluviométrica,EMPRESA DE ACUEDUCTO Y ALCANTARILLADO DE BOGOTA E.S.P,Area Operativa 11 - Cundinamarca-Amazonas,Bogota,"Bogota, D.C",1947-09-15,,PRECIPITACION,PTPM_TT_M,Precipitación total mensual,Mensual,1987-05-01,96.2,50,,900,98.300446,chirps-v2.0.1987.05.tif
70687,21200850,CISACA  [21200850],4.483333333,-74.08333333,2880,Pluviográfica,CORPORACION AUTONOMA REGIONAL DE CUNDINAMARCA,Area Operativa 11 - Cundinamarca-Amazonas,Bogota,"Bogota, D.C",1962-12-15,,PRECIPITACION,PTPM_TT_M,Precipitación total mensual,Mensual,1987-05-01,139.1,4,,900,140.31165,chirps-v2.0.1987.05.tif
72872,21200130,DELIRIO  [21200130],4.55,-74.05,3000,Pluviométrica,EMPRESA DE ACUEDUCTO Y ALCANTARILLADO DE BOGOTA E.S.P,Area Operativa 11 - Cundinamarca-Amazonas,Bogota,"Bogota, D.C",1933-05-15,,PRECIPITACION,PTPM_TT_M,Precipitación total mensual,Mensual,1987-05-01,163.4,50,,900,109.738716,chirps-v2.0.1987.05.tif
73794,21205791,ELDORADO CATAM - AUT [21205791],4.705583333,-74.15066667,2547,Sinóptica Principal,INSTITUTO DE HIDROLOGIA METEOROLOGIA Y ESTUDIOS AMBIENTALES,Area Operativa 11 - Cundinamarca-Amazonas,Bogota,"Bogota, D.C",2002-10-31,,PRECIPITACION,PTPM_TT_M,Precipitación total mensual,Mensual,1987-05-01,113.2,50,,900,93.28652,chirps-v2.0.1987.05.tif
74412,21205520,ELDORADO DIDACTICA [21205520],4.7,-74.15,2546,Climática Principal,INSTITUTO DE HIDROLOGIA METEOROLOGIA Y ESTUDIOS AMBIENTALES,Area Operativa 11 - Cundinamarca-Amazonas,Bogota,"Bogota, D.C",1959-01-15,2000-03-15 00:00:00,PRECIPITACION,PTPM_TT_M,Precipitación total mensual,Mensual,1987-05-01,120.1,50,,900,93.28652,chirps-v2.0.1987.05.tif
75498,24015150,CARRIZAL  [24015150],5.2,-73.76666667,2860,Climática Ordinaria,CORPORACION AUTONOMA REGIONAL DE CUNDINAMARCA,Area Operativa 11 - Cundinamarca-Amazonas,Cundinamarca,Cucunubá,1960-08-15,,PRECIPITACION,PTPM_TT_M,Precipitación total mensual,Mensual,1987-05-01,60.7,50,,900,94.95181,chirps-v2.0.1987.05.tif
76602,24010020,CARUPA  [24010020],5.35,-73.9,2960,Pluviográfica,CORPORACION AUTONOMA REGIONAL DE CUNDINAMARCA,Area Operativa 11 - Cundinamarca-Amazonas,Cundinamarca,Carmen De Carupa,1961-10-15,,PRECIPITACION,PTPM_TT_M,Precipitación total mensual,Mensual,1987-05-01,0.0,50,,900,131.5328,chirps-v2.0.1987.05.tif
77236,21205400,CHECUA-NEMOCON  [21205400],5.116666667,-73.86666667,2580,Climática Principal,CORPORACION AUTONOMA REGIONAL DE CUNDINAMARCA,Area Operativa 11 - Cundinamarca-Amazonas,Cundinamarca,Nemocón,1953-04-15,,PRECIPITACION,PTPM_TT_M,Precipitación total mensual,Mensual,1987-05-01,106.4,50,,900,103.854225,chirps-v2.0.1987.05.tif
77406,21206050,ESCUELA COL INGENIERIA [21206050],4.783333333,-74.05,2650,Climática Principal,INSTITUTO DE HIDROLOGIA METEOROLOGIA Y ESTUDIOS AMBIENTALES,Area Operativa 11 - Cundinamarca-Amazonas,Bogota,"Bogota, D.C",1986-04-15,2008-12-10 00:00:00,PRECIPITACION,PTPM_TT_M,Precipitación total mensual,Mensual,1987-05-01,108.6,4,,900,98.300446,chirps-v2.0.1987.05.tif
77664,21201200,ESCUELA LA UNION [21201200],4.34264,-74.18381,3378,Climática Ordinaria,INSTITUTO DE HIDROLOGIA METEOROLOGIA Y ESTUDIOS AMBIENTALES,Area Operativa 11 - Cundinamarca-Amazonas,Bogota,"Bogota, D.C",2007-08-01,,PRECIPITACION,PTPM_TT_M,Precipitación total mensual,Mensual,1987-05-01,105.7,50,,900,110.6139,chirps-v2.0.1987.05.tif
78489,21202120,FONTIBON ACUEDUCTO  [21202120],4.666666667,-74.15,2545,Pluviométrica,EMPRESA DE ACUEDUCTO Y ALCANTARILLADO DE BOGOTA E.S.P,Area Operativa 11 - Cundinamarca-Amazonas,Bogota,"Bogota, D.C",1955-09-15,,PRECIPITACION,PTPM_TT_M,Precipitación total mensual,Mensual,1987-05-01,88.6,50,,900,106.52212,chirps-v2.0.1987.05.tif
79243,21200320,GRANIZO  [21200320],4.616666667,-74.05,3125,Pluviométrica,EMPRESA DE ACUEDUCTO Y ALCANTARILLADO DE BOGOTA E.S.P,Area Operativa 11 - Cundinamarca-Amazonas,Bogota,"Bogota, D.C",1947-09-15,,PRECIPITACION,PTPM_TT_M,Precipitación total mensual,Mensual,1987-05-01,155.0,4,,900,89.38966,chirps-v2.0.1987.05.tif
79522,21201980,GUADALUPE  - AUT  [21201980],4.59157,-74.05471,3227,Climática Ordinaria,FONDO DE PREVENCION Y ATENCION DE DESASTRES DE BOGOTA DC - FOPAE,Area Operativa 11 - Cundinamarca-Amazonas,Bogota,"Bogota, D.C",2007-09-01,,PRECIPITACION,PTPM_TT_M,Precipitación total mensual,Mensual,1987-05-01,177.3,50,,900,109.738716,chirps-v2.0.1987.05.tif
80393,21200200,HATO EL  [21200200],4.383333333,-74.18333333,3150,Pluviométrica,EMPRESA DE ACUEDUCTO Y ALCANTARILLADO DE BOGOTA E.S.P,Area Operativa 11 - Cundinamarca-Amazonas,Bogota,"Bogota, D.C",1928-06-15,,PRECIPITACION,PTPM_TT_M,Precipitación total mensual,Mensual,1987-05-01,113.8,50,,900,110.644485,chirps-v2.0.1987.05.tif
81808,21205710,JARDIN BOTANICO  - AUT [21205710],4.669333333,-74.10266667,2552,Climática Principal,INSTITUTO DE HIDROLOGIA METEOROLOGIA Y ESTUDIOS AMBIENTALES,Area Operativa 11 - Cundinamarca-Amazonas,Bogota,"Bogota, D.C",1974-09-15,,PRECIPITACION,PTPM_TT_M,Precipitación total mensual,Mensual,1987-05-01,108.3,50,,900,87.334625,chirps-v2.0.1987.05.tif
83992,21205230,OBS MET NACIONAL [21205230],4.633333333,-74.1,2556,Climática Principal,INSTITUTO DE HIDROLOGIA METEOROLOGIA Y ESTUDIOS AMBIENTALES,Area Operativa 11 - Cundinamarca-Amazonas,Bogota,"Bogota, D.C",1941-03-15,1993-11-15 00:00:00,PRECIPITACION,PTPM_TT_M,Precipitación total mensual,Mensual,1987-05-01,183.1,50,,900,93.34456,chirps-v2.0.1987.05.tif
84606,21201560,PICOTA LA  [21201560],4.566666667,-74.13333333,2580,Pluviográfica,CORPORACION AUTONOMA REGIONAL DE CUNDINAMARCA,Area Operativa 11 - Cundinamarca-Amazonas,Bogota,"Bogota, D.C",1980-06-15,,PRECIPITACION,PTPM_TT_M,Precipitación total mensual,Mensual,1987-05-01,132.1,50,,900,97.736404,chirps-v2.0.1987.05.tif
86033,21200340,REGADERA 2 LA  [21200340],4.4,-74.15,3056,Pluviométrica,EMPRESA DE ACUEDUCTO Y ALCANTARILLADO DE BOGOTA E.S.P,Area Operativa 11 - Cundinamarca-Amazonas,Bogota,"Bogota, D.C",1948-01-15,,PRECIPITACION,PTPM_TT_M,Precipitación total mensual,Mensual,1987-05-01,126.0,50,,900,111.40809,chirps-v2.0.1987.05.tif
86464,21201960,SALITRE CASA BOMBA  [21201960],4.666666667,-74.06666667,2580,Pluviográfica,EMPRESA DE ACUEDUCTO Y ALCANTARILLADO DE BOGOTA E.S.P,Area Operativa 11 - Cundinamarca-Amazonas,Bogota,"Bogota, D.C",1975-01-15,,PRECIPITACION,PTPM_TT_M,Precipitación total mensual,Mensual,1987-05-01,151.6,50,,900,92.54705,chirps-v2.0.1987.05.tif
88081,21200400,SAN LUIS 1 Y 2  [21200400],4.633333333,-74.03333333,3000,Pluviográfica,EMPRESA DE ACUEDUCTO Y ALCANTARILLADO DE BOGOTA E.S.P,Area Operativa 11 - Cundinamarca-Amazonas,Bogota,"Bogota, D.C",1936-02-15,,PRECIPITACION,PTPM_TT_M,Precipitación total mensual,Mensual,1987-05-01,172.5,50,,900,65.63388,chirps-v2.0.1987.05.tif
88470,21201240,SANTA MARIA DE USME [21201240],4.481305556,-74.12627778,2800,Pluviométrica,INSTITUTO DE HIDROLOGIA METEOROLOGIA Y ESTUDIOS AMBIENTALES,Area Operativa 11 - Cundinamarca-Amazonas,Bogota,"Bogota, D.C",1977-12-15,,PRECIPITACION,PTPM_TT_M,Precipitación total mensual,Mensual,1987-05-01,83.1,50,,900,103.60713,chirps-v2.0.1987.05.tif
89057,21201600,SEDE IDEAM KRA 10 [21201600],4.607111111,-74.07288889,2685,Pluviográfica,INSTITUTO DE HIDROLOGIA METEOROLOGIA Y ESTUDIOS AMBIENTALES,Area Operativa 11 - Cundinamarca-Amazonas,Bogota,"Bogota, D.C",1986-09-15,2019-05-03 14:58:00,PRECIPITACION,PTPM_TT_M,Precipitación total mensual,Mensual,1987-05-01,252.8,50,,900,89.38966,chirps-v2.0.1987.05.tif
90063,21200520,STA LUCIA  [21200520],4.566666667,-74.11666667,2630,Pluviométrica,EMPRESA DE ACUEDUCTO Y ALCANTARILLADO DE BOGOTA E.S.P,Area Operativa 11 - Cundinamarca-Amazonas,Bogota,"Bogota, D.C",1956-07-15,,PRECIPITACION,PTPM_TT_M,Precipitación total mensual,Mensual,1987-05-01,17.3,4,,900,97.736404,chirps-v2.0.1987.05.tif
90706,21200770,TORCA  [21200770],4.783333333,-74.03333333,2579,Pluviométrica,CORPORACION AUTONOMA REGIONAL DE CUNDINAMARCA,Area Operativa 11 - Cundinamarca-Amazonas,Bogota,"Bogota, D.C",1960-02-15,,PRECIPITACION,PTPM_TT_M,Precipitación total mensual,Mensual,1987-05-01,0.0,50,,900,94.53363,chirps-v2.0.1987.05.tif
91336,21206190,UNIV PEDAGOGICA [21206190],4.666666667,-74.06666667,2570,Climática Ordinaria,INSTITUTO DE HIDROLOGIA METEOROLOGIA Y ESTUDIOS AMBIENTALES,Area Operativa 11 - Cundinamarca-Amazonas,Bogota,"Bogota, D.C",1986-11-15,2008-12-10 00:00:00,PRECIPITACION,PTPM_TT_M,Precipitación total mensual,Mensual,1987-05-01,56.5,4,,900,92.54705,chirps-v2.0.1987.05.tif
92027,21201110,USAQUEN  [21201110],4.683333333,-74.01666667,2647,Pluviométrica,CORPORACION AUTONOMA REGIONAL DE CUNDINAMARCA,Area Operativa 11 - Cundinamarca-Amazonas,Bogota,"Bogota, D.C",1955-06-15,,PRECIPITACION,PTPM_TT_M,Precipitación total mensual,Mensual,1987-05-01,154.0,50,,900,84.89179,chirps-v2.0.1987.05.tif
93418,21200240,VERJON EL  [21200240],4.583333333,-74.01666667,3250,Pluviométrica,EMPRESA DE ACUEDUCTO Y ALCANTARILLADO DE BOGOTA E.S.P,Area Operativa 11 - Cundinamarca-Amazonas,Bogota,"Bogota, D.C",1946-02-15,,PRECIPITACION,PTPM_TT_M,Precipitación total mensual,Mensual,1987-05-01,138.4,50,,900,94.8739,chirps-v2.0.1987.05.tif
94579,21205240,VITELMA  [21205240],4.566666667,-74.06666667,2682,Climática Ordinaria,EMPRESA DE ACUEDUCTO Y ALCANTARILLADO DE BOGOTA E.S.P,Area Operativa 11 - Cundinamarca-Amazonas,Bogota,"Bogota, D.C",1941-05-15,,PRECIPITACION,PTPM_TT_M,Precipitación total mensual,Mensual,1987-05-01,203.4,4,,900,109.738716,chirps-v2.0.1987.05.tif
95446,35030020,MONFORT [35030020],4.310083333,-73.64802778,1100,Pluviométrica,INSTITUTO DE HIDROLOGIA METEOROLOGIA Y ESTUDIOS AMBIENTALES,Area Operativa 03 - Meta-Guaviare-Guainía,Meta,El Calvario,1968-08-15,,PRECIPITACION,PTPM_TT_M,Precipitación total mensual,Mensual,1987-05-01,578.0,50,,1200,365.14685,chirps-v2.0.1987.05.tif
96170,21185040,AEROPUERTO SANTIAGO VILA [21185040],4.275444444,-74.798,305,Climática Principal,INSTITUTO DE HIDROLOGIA METEOROLOGIA Y ESTUDIOS AMBIENTALES,Area Operativa 10 - Tolima,Tolima,Flandes,1951-01-15,,PRECIPITACION,PTPM_TT_M,Precipitación total mensual,Mensual,1987-05-01,131.2,4,,1200,155.19466,chirps-v2.0.1987.05.tif
96633,21250610,ALSACIA [21250610],4.85,-74.78333333,310,Pluviométrica,INSTITUTO DE HIDROLOGIA METEOROLOGIA Y ESTUDIOS AMBIENTALES,Area Operativa 10 - Tolima,Tolima,Ambalema,1983-07-15,2002-02-15 00:00:00,PRECIPITACION,PTPM_TT_M,Precipitación total mensual,Mensual,1987-05-01,103.5,50,,900,115.21673,chirps-v2.0.1987.05.tif
97170,21250590,BOCATOMA C CENTRAL [21250590],4.783333333,-74.78333333,310,Pluviométrica,INSTITUTO DE HIDROLOGIA METEOROLOGIA Y ESTUDIOS AMBIENTALES,Area Operativa 10 - Tolima,Tolima,Ambalema,1983-07-15,2002-02-15 00:00:00,PRECIPITACION,PTPM_TT_M,Precipitación total mensual,Mensual,1987-05-01,90.0,50,,900,141.92079,chirps-v2.0.1987.05.tif
97420,21250540,BOCATOMA C NORTE [21250540],4.783333333,-74.8,340,Pluviométrica,INSTITUTO DE HIDROLOGIA METEOROLOGIA Y ESTUDIOS AMBIENTALES,Area Operativa 10 - Tolima,Tolima,Ambalema,1983-07-15,2002-02-15 00:00:00,PRECIPITACION,PTPM_TT_M,Precipitación total mensual,Mensual,1987-05-01,84.0,4,,900,112.96415,chirps-v2.0.1987.05.tif
97651,21250580,BOQUERON [21250580],4.8,-74.83333333,405,Pluviométrica,INSTITUTO DE HIDROLOGIA METEOROLOGIA Y ESTUDIOS AMBIENTALES,Area Operativa 10 - Tolima,Tolima,Ambalema,1983-07-15,2002-02-15 00:00:00,PRECIPITACION,PTPM_TT_M,Precipitación total mensual,Mensual,1987-05-01,72.9,4,,900,117.577866,chirps-v2.0.1987.05.tif
98063,21250430,CAMPAMENTO AMBALEM [21250430],4.783333333,-74.76666667,241,Pluviométrica,INSTITUTO DE HIDROLOGIA METEOROLOGIA Y ESTUDIOS AMBIENTALES,Area Operativa 10 - Tolima,Tolima,Ambalema,1968-07-15,2002-02-15 00:00:00,PRECIPITACION,PTPM_TT_M,Precipitación total mensual,Mensual,1987-05-01,81.0,50,,900,141.92079,chirps-v2.0.1987.05.tif
98531,21170020,DOS AGUAS LAS [21170020],4.258277778,-74.78361111,3394,Pluviométrica,INSTITUTO DE HIDROLOGIA METEOROLOGIA Y ESTUDIOS AMBIENTALES,Area Operativa 10 - Tolima,Tolima,Suárez,1951-01-15,,PRECIPITACION,PTPM_TT_M,Precipitación total mensual,Mensual,1987-05-01,233.7,50,,1200,155.19466,chirps-v2.0.1987.05.tif
99155,23025020,ESPERANZA LA [23025020],5.262638889,-74.72913889,208,Climática Ordinaria,INSTITUTO DE HIDROLOGIA METEOROLOGIA Y ESTUDIOS AMBIENTALES,Area Operativa 10 - Tolima,Tolima,Honda,1970-10-15,2016-01-06 00:00:00,PRECIPITACION,PTPM_TT_M,Precipitación total mensual,Mensual,1987-05-01,126.9,50,,900,224.37695,chirps-v2.0.1987.05.tif
99525,21250570,IGUACITOS [21250570],4.85,-74.85,375,Pluviométrica,INSTITUTO DE HIDROLOGIA METEOROLOGIA Y ESTUDIOS AMBIENTALES,Area Operativa 10 - Tolima,Tolima,Lérida,1983-07-15,2002-02-15 00:00:00,PRECIPITACION,PTPM_TT_M,Precipitación total mensual,Mensual,1987-05-01,58.3,50,,900,121.58243,chirps-v2.0.1987.05.tif
99714,23010140,MESA LA  [23010140],5.183333333,-74.88333333,1200,Pluviométrica,FEDERACION NACIONAL DE CAFETEROS,Area Operativa 10 - Tolima,Tolima,Mariquita,1991-01-15,,PRECIPITACION,PTPM_TT_M,Precipitación total mensual,Mensual,1987-05-01,285.0,50,,900,237.37358,chirps-v2.0.1987.05.tif
99967,21190300,SALERO EL [21190300],4.234527778,-74.60663889,650,Pluviométrica,INSTITUTO DE HIDROLOGIA METEOROLOGIA Y ESTUDIOS AMBIENTALES,Area Operativa 10 - Tolima,Tolima,Melgar,1971-11-15,2014-08-28 00:00:00,PRECIPITACION,PTPM_TT_M,Precipitación total mensual,Mensual,1987-05-01,133.7,50,,900,223.90805,chirps-v2.0.1987.05.tif
100461,21255080,SALTO EL [21255080],4.78375,-74.76794444,1139,Climática Principal,INSTITUTO DE HIDROLOGIA METEOROLOGIA Y ESTUDIOS AMBIENTALES,Area Operativa 10 - Tolima,Tolima,Ambalema,1968-11-15,,PRECIPITACION,PTPM_TT_M,Precipitación total mensual,Mensual,1987-05-01,91.6,50,,900,141.92079,chirps-v2.0.1987.05.tif
101500,35035040,CHINGAZA  [35035040],4.483333333,-73.9,2999,Climática Ordinaria,EMPRESA DE ACUEDUCTO Y ALCANTARILLADO DE BOGOTA E.S.P,Area Operativa 11 - Cundinamarca-Amazonas,Cundinamarca,Fómeque,1968-01-15,,PRECIPITACION,PTPM_TT_M,Precipitación total mensual,Mensual,1987-05-01,143.3,50,,900,197.15948,chirps-v2.0.1987.05.tif
102011,35020050,CHIPAQUE  [35020050],4.45,-74.05,2850,Pluviográfica,EMPRESA DE ACUEDUCTO Y ALCANTARILLADO DE BOGOTA E.S.P,Area Operativa 11 - Cundinamarca-Amazonas,Cundinamarca,Chipaque,1956-01-15,,PRECIPITACION,PTPM_TT_M,Precipitación total mensual,Mensual,1987-05-01,92.6,50,,900,140.31165,chirps-v2.0.1987.05.tif
102515,35020240,CHOACHI  [35020240],4.533333333,-73.93333333,1950,Pluviográfica,EMPRESA DE ACUEDUCTO Y ALCANTARILLADO DE BOGOTA E.S.P,Area Operativa 11 - Cundinamarca-Amazonas,Cundinamarca,Choachí,1947-08-15,,PRECIPITACION,PTPM_TT_M,Precipitación total mensual,Mensual,1987-05-01,101.2,4,,900,185.99252,chirps-v2.0.1987.05.tif
102868,35020280,CHOACHI [35020280],4.522916667,-73.92658333,1950,Pluviométrica,INSTITUTO DE HIDROLOGIA METEOROLOGIA Y ESTUDIOS AMBIENTALES,Area Operativa 11 - Cundinamarca-Amazonas,Cundinamarca,Choachí,1981-11-15,,PRECIPITACION,PTPM_TT_M,Precipitación total mensual,Mensual,1987-05-01,94.9,50,,900,185.99252,chirps-v2.0.1987.05.tif
103734,35030140,CHUZA MONTERREDO  [35030140],4.616666667,-73.71666667,3100,Pluviométrica,EMPRESA DE ACUEDUCTO Y ALCANTARILLADO DE BOGOTA E.S.P,Area Operativa 11 - Cundinamarca-Amazonas,Cundinamarca,Fómeque,1966-11-15,,PRECIPITACION,PTPM_TT_M,Precipitación total mensual,Mensual,1987-05-01,210.4,50,,900,169.44994,chirps-v2.0.1987.05.tif
104000,35060210,CLARAVAL AUT [35060210],4.65025,-73.64144444,2100,Climática Principal,INSTITUTO DE HIDROLOGIA METEOROLOGIA Y ESTUDIOS AMBIENTALES,Area Operativa 11 - Cundinamarca-Amazonas,Cundinamarca,Junín,1972-02-15,,PRECIPITACION,PTPM_TT_M,Precipitación total mensual,Mensual,1987-05-01,192.4,50,,900,206.66199,chirps-v2.0.1987.05.tif
104645,21200960,CONSUELO EL  [21200960],4.983333333,-73.78333333,2960,Pluviográfica,CORPORACION AUTONOMA REGIONAL DE CUNDINAMARCA,Area Operativa 11 - Cundinamarca-Amazonas,Cundinamarca,Sesquilé,1967-03-15,,PRECIPITACION,PTPM_TT_M,Precipitación total mensual,Mensual,1987-05-01,121.0,50,,900,124.263214,chirps-v2.0.1987.05.tif
104843,21201070,CORAZON EL [21201070],4.865361111,-74.28941667,2845,Pluviométrica,INSTITUTO DE HIDROLOGIA METEOROLOGIA Y ESTUDIOS AMBIENTALES,Area Operativa 11 - Cundinamarca-Amazonas,Cundinamarca,Facatativá,1974-07-15,,PRECIPITACION,PTPM_TT_M,Precipitación total mensual,Mensual,1987-05-01,80.9,50,,900,141.30258,chirps-v2.0.1987.05.tif
105476,35030120,CUCHILLA GOLILLAS  [35030120],4.566666667,-73.73333333,3350,Pluviométrica,EMPRESA DE ACUEDUCTO Y ALCANTARILLADO DE BOGOTA E.S.P,Area Operativa 11 - Cundinamarca-Amazonas,Cundinamarca,Fómeque,1969-08-15,,PRECIPITACION,PTPM_TT_M,Precipitación total mensual,Mensual,1987-05-01,237.5,50,,900,178.54286,chirps-v2.0.1987.05.tif
106037,24010140,CUCUNUBA [24010140],5.21957,-73.78229,2818,Pluviométrica,INSTITUTO DE HIDROLOGIA METEOROLOGIA Y ESTUDIOS AMBIENTALES,Area Operativa 11 - Cundinamarca-Amazonas,Cundinamarca,Cucunubá,1958-01-15,2019-11-13 11:27:00,PRECIPITACION,PTPM_TT_M,Precipitación total mensual,Mensual,1987-05-01,97.7,50,,900,94.95181,chirps-v2.0.1987.05.tif
106425,24011080,CUCUNUBA1 [24011080],5.25,-73.77,3,Pluviométrica,INSTITUTO DE HIDROLOGIA METEOROLOGIA Y ESTUDIOS AMBIENTALES,Area Operativa 11 - Cundinamarca-Amazonas,Cundinamarca,Cucunubá,1987-05-15,,PRECIPITACION,PTPM_TT_M,Precipitación total mensual,Mensual,1987-05-01,115.1,4,,900,92.37545,chirps-v2.0.1987.05.tif
107111,35040010,EL RETIRO [35040010],4.338722222,-73.54652778,870,Pluviométrica,INSTITUTO DE HIDROLOGIA METEOROLOGIA Y ESTUDIOS AMBIENTALES,Area Operativa 03 - Meta-Guaviare-Guainía,Cundinamarca,Medina,1968-08-15,,PRECIPITACION,PTPM_TT_M,Precipitación total mensual,Mensual,1987-05-01,610.0,50,,1200,428.46454,chirps-v2.0.1987.05.tif
108298,21206410,ESC SAMPER MADRID  [21206410],4.516666667,-74.58333333,550,Climática Principal,CORPORACION AUTONOMA REGIONAL DE CUNDINAMARCA,Area Operativa 11 - Cundinamarca-Amazonas,Cundinamarca,Apulo,1987-03-15,,PRECIPITACION,PTPM_TT_M,Precipitación total mensual,Mensual,1987-05-01,194.4,50,,900,172.22787,chirps-v2.0.1987.05.tif
109400,23065070,ESC VOCACIONAL  [23065070],5.166666667,-74.2,1940,Climática Ordinaria,CORPORACION AUTONOMA REGIONAL DE CUNDINAMARCA,Area Operativa 11 - Cundinamarca-Amazonas,Cundinamarca,Pacho,1966-06-15,,PRECIPITACION,PTPM_TT_M,Precipitación total mensual,Mensual,1987-05-01,172.0,50,,900,217.3291,chirps-v2.0.1987.05.tif
109620,35060100,ESCUELA TENA [35060100],4.712694444,-73.52069444,1650,Pluviográfica,INSTITUTO DE HIDROLOGIA METEOROLOGIA Y ESTUDIOS AMBIENTALES,Area Operativa 11 - Cundinamarca-Amazonas,Cundinamarca,Gachalá,1972-08-15,,PRECIPITACION,PTPM_TT_M,Precipitación total mensual,Mensual,1987-05-01,238.4,50,,900,271.42697,chirps-v2.0.1987.05.tif
110201,21201140,ESPERANZA LA [21201140],4.802166667,-74.17997222,2555,Pluviométrica,INSTITUTO DE HIDROLOGIA METEOROLOGIA Y ESTUDIOS AMBIENTALES,Area Operativa 11 - Cundinamarca-Amazonas,Cundinamarca,Tenjo,1974-07-15,,PRECIPITACION,PTPM_TT_M,Precipitación total mensual,Mensual,1987-05-01,67.3,50,,900,109.33936,chirps-v2.0.1987.05.tif
110628,35070480,ESPERANZA LA [35070480],5.0100278,-73.539444444,1854,Pluviográfica,INSTITUTO DE HIDROLOGIA METEOROLOGIA Y ESTUDIOS AMBIENTALES,Area Operativa 06 - Boyacá-Casanare-Vichada,Cundinamarca,Manta,1982-08-15,,PRECIPITACION,PTPM_TT_M,Precipitación total mensual,Mensual,1987-05-01,130.4,50,,900,173.47195,chirps-v2.0.1987.05.tif
111683,23060320,FLORIDA LA  [23060320],5.083333333,-74.3,1400,Pluviométrica,FEDERACION NACIONAL DE CAFETEROS,Area Operativa 11 - Cundinamarca-Amazonas,Cundinamarca,Vergara,1988-01-15,,PRECIPITACION,PTPM_TT_M,Precipitación total mensual,Mensual,1987-05-01,253.0,50,,900,244.58203,chirps-v2.0.1987.05.tif
111966,21205670,FLORIDA LA AUT [21205670],4.770888889,-74.43763889,1915,Climática Principal,INSTITUTO DE HIDROLOGIA METEOROLOGIA Y ESTUDIOS AMBIENTALES,Area Operativa 11 - Cundinamarca-Amazonas,Cundinamarca,Anolaima,1970-11-15,,PRECIPITACION,PTPM_TT_M,Precipitación total mensual,Mensual,1987-05-01,138.0,50,,900,136.1206,chirps-v2.0.1987.05.tif
112444,35020290,FOMEQUE [35020290],4.486527778,-73.89041667,1900,Pluviométrica,INSTITUTO DE HIDROLOGIA METEOROLOGIA Y ESTUDIOS AMBIENTALES,Area Operativa 11 - Cundinamarca-Amazonas,Cundinamarca,Fómeque,1981-11-15,,PRECIPITACION,PTPM_TT_M,Precipitación total mensual,Mensual,1987-05-01,322.0,50,,900,208.32477,chirps-v2.0.1987.05.tif
113123,21201660,FUTE  [21201660],4.6,-74.28333333,2607,Pluviográfica,CORPORACION AUTONOMA REGIONAL DE CUNDINAMARCA,Area Operativa 11 - Cundinamarca-Amazonas,Cundinamarca,Soacha,1959-09-15,,PRECIPITACION,PTPM_TT_M,Precipitación total mensual,Mensual,1987-05-01,81.0,50,,900,136.50671,chirps-v2.0.1987.05.tif
113710,35060090,GACHALA [35060090],4.690527778,-73.52291667,1733,Pluviométrica,INSTITUTO DE HIDROLOGIA METEOROLOGIA Y ESTUDIOS AMBIENTALES,Area Operativa 11 - Cundinamarca-Amazonas,Cundinamarca,Gachalá,1962-04-15,,PRECIPITACION,PTPM_TT_M,Precipitación total mensual,Mensual,1987-05-01,223.1,50,,900,303.43692,chirps-v2.0.1987.05.tif
114547,35065010,GACHETA [35065010],4.830388889,-73.64647222,1752,Climática Ordinaria,INSTITUTO DE HIDROLOGIA METEOROLOGIA Y ESTUDIOS AMBIENTALES,Area Operativa 11 - Cundinamarca-Amazonas,Cundinamarca,Gachetá,1972-09-15,,PRECIPITACION,PTPM_TT_M,Precipitación total mensual,Mensual,1987-05-01,165.2,50,,900,147.89742,chirps-v2.0.1987.05.tif
115111,35060240,GAMA [35060240],4.764277778,-73.60991667,2210,Pluviométrica,INSTITUTO DE HIDROLOGIA METEOROLOGIA Y ESTUDIOS AMBIENTALES,Area Operativa 11 - Cundinamarca-Amazonas,Cundinamarca,Gama,1972-08-15,,PRECIPITACION,PTPM_TT_M,Precipitación total mensual,Mensual,1987-05-01,45.0,50,,900,143.22792,chirps-v2.0.1987.05.tif
115783,21200830,GRANJAS LAS  [21200830],4.466666667,-74.43333333,1400,Pluviométrica,FEDERACION NACIONAL DE CAFETEROS,Area Operativa 11 - Cundinamarca-Amazonas,Cundinamarca,El Colegio,1961-04-15,,PRECIPITACION,PTPM_TT_M,Precipitación total mensual,Mensual,1987-05-01,213.0,50,,900,196.11444,chirps-v2.0.1987.05.tif
116521,21201180,GUANQUICA [21201180],5.184277778,-73.941111111,3,Pluviométrica,INSTITUTO DE HIDROLOGIA METEOROLOGIA Y ESTUDIOS AMBIENTALES,Area Operativa 11 - Cundinamarca-Amazonas,Cundinamarca,Tausa,1954-12-15,,PRECIPITACION,PTPM_TT_M,Precipitación total mensual,Mensual,1987-05-01,97.7,50,,900,110.09753,chirps-v2.0.1987.05.tif
117279,21200600,GUARANI EL PENON  [21200600],4.433333333,-74.3,2800,Pluviográfica,CORPORACION AUTONOMA REGIONAL DE CUNDINAMARCA,Area Operativa 11 - Cundinamarca-Amazonas,Cundinamarca,Sibaté,1959-09-15,,PRECIPITACION,PTPM_TT_M,Precipitación total mensual,Mensual,1987-05-01,121.0,50,,900,133.59132,chirps-v2.0.1987.05.tif
117707,21205700,GUASCA [21205700],4.879861111,-73.86811111,2750,Climática Ordinaria,INSTITUTO DE HIDROLOGIA METEOROLOGIA Y ESTUDIOS AMBIENTALES,Area Operativa 11 - Cundinamarca-Amazonas,Cundinamarca,Guasca,1974-07-15,,PRECIPITACION,PTPM_TT_M,Precipitación total mensual,Mensual,1987-05-01,75.3,4,,900,117.99956,chirps-v2.0.1987.05.tif
118144,35020300,GUTIERREZ [35020300],4.253916667,-74.00269444,2300,Climática Principal,INSTITUTO DE HIDROLOGIA METEOROLOGIA Y ESTUDIOS AMBIENTALES,Area Operativa 11 - Cundinamarca-Amazonas,Cundinamarca,Gutiérrez,1984-07-15,,PRECIPITACION,PTPM_TT_M,Precipitación total mensual,Mensual,1987-05-01,116.4,50,,900,160.63597,chirps-v2.0.1987.05.tif
118891,24010300,HATILLO EL  [24010300],5.166666667,-73.8,2885,Pluviométrica,CORPORACION AUTONOMA REGIONAL DE CUNDINAMARCA,Area Operativa 11 - Cundinamarca-Amazonas,Cundinamarca,Suesca,1960-08-15,,PRECIPITACION,PTPM_TT_M,Precipitación total mensual,Mensual,1987-05-01,98.0,50,,900,97.70073,chirps-v2.0.1987.05.tif
119059,24010520,HATO 1 EL  [24010520],5.283333333,-73.91666667,2985,Pluviométrica,CORPORACION AUTONOMA REGIONAL DE CUNDINAMARCA,Area Operativa 11 - Cundinamarca-Amazonas,Cundinamarca,Carmen De Carupa,1972-10-15,,PRECIPITACION,PTPM_TT_M,Precipitación total mensual,Mensual,1987-05-01,169.0,50,,900,126.91521,chirps-v2.0.1987.05.tif
119227,24010530,HATO 2 EL  [24010530],5.266666667,-73.91666667,2974,Pluviométrica,CORPORACION AUTONOMA REGIONAL DE CUNDINAMARCA,Area Operativa 11 - Cundinamarca-Amazonas,Cundinamarca,Carmen De Carupa,1972-10-15,,PRECIPITACION,PTPM_TT_M,Precipitación total mensual,Mensual,1987-05-01,0.0,50,,900,126.91521,chirps-v2.0.1987.05.tif
119395,24010540,HATO 3 EL  [24010540],5.25,-73.95,3398,Pluviométrica,CORPORACION AUTONOMA REGIONAL DE CUNDINAMARCA,Area Operativa 11 - Cundinamarca-Amazonas,Cundinamarca,Carmen De Carupa,1972-10-15,,PRECIPITACION,PTPM_TT_M,Precipitación total mensual,Mensual,1987-05-01,77.0,50,,900,126.65939,chirps-v2.0.1987.05.tif
119563,24010550,HATO 4 EL  [24010550],5.216666667,-73.95,3465,Pluviométrica,CORPORACION AUTONOMA REGIONAL DE CUNDINAMARCA,Area Operativa 11 - Cundinamarca-Amazonas,Cundinamarca,Carmen De Carupa,1972-10-15,,PRECIPITACION,PTPM_TT_M,Precipitación total mensual,Mensual,1987-05-01,141.0,50,,900,120.30969,chirps-v2.0.1987.05.tif
119731,24010560,HATO 5 EL  [24010560],5.216666667,-73.95,3360,Pluviométrica,CORPORACION AUTONOMA REGIONAL DE CUNDINAMARCA,Area Operativa 11 - Cundinamarca-Amazonas,Cundinamarca,Carmen De Carupa,1972-10-15,,PRECIPITACION,PTPM_TT_M,Precipitación total mensual,Mensual,1987-05-01,0.0,50,,900,120.30969,chirps-v2.0.1987.05.tif
119899,24010570,HATO 6 EL  [24010570],5.233333333,-73.93333333,3105,Pluviométrica,CORPORACION AUTONOMA REGIONAL DE CUNDINAMARCA,Area Operativa 11 - Cundinamarca-Amazonas,Cundinamarca,Carmen De Carupa,1972-10-15,,PRECIPITACION,PTPM_TT_M,Precipitación total mensual,Mensual,1987-05-01,173.0,50,,900,122.75954,chirps-v2.0.1987.05.tif
120067,24010580,HATO 7 EL  [24010580],5.233333333,-73.91666667,3271,Pluviométrica,CORPORACION AUTONOMA REGIONAL DE CUNDINAMARCA,Area Operativa 11 - Cundinamarca-Amazonas,Cundinamarca,Carmen De Carupa,1972-10-15,,PRECIPITACION,PTPM_TT_M,Precipitación total mensual,Mensual,1987-05-01,165.0,50,,900,122.75954,chirps-v2.0.1987.05.tif
120235,24010590,HATO 8 EL  [24010590],5.266666667,-73.9,2963,Pluviométrica,CORPORACION AUTONOMA REGIONAL DE CUNDINAMARCA,Area Operativa 11 - Cundinamarca-Amazonas,Cundinamarca,Carmen De Carupa,1972-10-15,,PRECIPITACION,PTPM_TT_M,Precipitación total mensual,Mensual,1987-05-01,141.0,50,,900,126.91521,chirps-v2.0.1987.05.tif
120595,24010350,HATO EL  [24010350],5.283333333,-73.9,2900,Pluviográfica,CORPORACION AUTONOMA REGIONAL DE CUNDINAMARCA,Area Operativa 11 - Cundinamarca-Amazonas,Cundinamarca,Carmen De Carupa,1962-10-15,,PRECIPITACION,PTPM_TT_M,Precipitación total mensual,Mensual,1987-05-01,132.5,50,,900,126.91521,chirps-v2.0.1987.05.tif
120745,21201210,HATO EL [21201210],4.866388889,-74.15386111,2575,Pluviométrica,INSTITUTO DE HIDROLOGIA METEOROLOGIA Y ESTUDIOS AMBIENTALES,Area Operativa 11 - Cundinamarca-Amazonas,Cundinamarca,Tenjo,1978-06-15,,PRECIPITACION,PTPM_TT_M,Precipitación total mensual,Mensual,1987-05-01,129.4,50,,900,118.15576,chirps-v2.0.1987.05.tif
121193,35070490,HATO GRANDE HACIENDA [35070490],4.959388889,-73.58436111,2346,Pluviométrica,INSTITUTO DE HIDROLOGIA METEOROLOGIA Y ESTUDIOS AMBIENTALES,Area Operativa 11 - Cundinamarca-Amazonas,Cundinamarca,Manta,1982-07-15,,PRECIPITACION,PTPM_TT_M,Precipitación total mensual,Mensual,1987-05-01,362.0,50,,900,188.89676,chirps-v2.0.1987.05.tif
121604,21202160,HIDROPARAISO [21202160],4.5745,-74.407388889,1685,Pluviométrica,INSTITUTO DE HIDROLOGIA METEOROLOGIA Y ESTUDIOS AMBIENTALES,Area Operativa 11 - Cundinamarca-Amazonas,Cundinamarca,El Colegio,1999-01-15,,PRECIPITACION,PTPM_TT_M,Precipitación total mensual,Mensual,1987-05-01,132.1,50,,900,161.10968,chirps-v2.0.1987.05.tif
121981,21206160,HIDROPARAISO [21206160],4.573166667,-74.40483333,1600,Climática Principal,INSTITUTO DE HIDROLOGIA METEOROLOGIA Y ESTUDIOS AMBIENTALES,Area Operativa 11 - Cundinamarca-Amazonas,Cundinamarca,El Colegio,1984-04-15,1998-12-15 00:00:00,PRECIPITACION,PTPM_TT_M,Precipitación total mensual,Mensual,1987-05-01,132.1,50,,900,161.10968,chirps-v2.0.1987.05.tif
122565,21201410,ACANDY  [21201410],5.05,-73.88333333,2600,Pluviométrica,CORPORACION AUTONOMA REGIONAL DE CUNDINAMARCA,Area Operativa 11 - Cundinamarca-Amazonas,Cundinamarca,Nemocón,1977-10-15,,PRECIPITACION,PTPM_TT_M,Precipitación total mensual,Mensual,1987-05-01,127.0,50,,900,108.58215,chirps-v2.0.1987.05.tif
123336,21201590,ALCO  [21201590],4.9,-74.0,2590,Pluviográfica,CORPORACION AUTONOMA REGIONAL DE CUNDINAMARCA,Area Operativa 11 - Cundinamarca-Amazonas,Cundinamarca,Zipaquirá,1980-06-15,,PRECIPITACION,PTPM_TT_M,Precipitación total mensual,Mensual,1987-05-01,92.6,50,,900,117.273796,chirps-v2.0.1987.05.tif
123839,21201130,ALMAVIVA  [21201130],4.866666667,-74.01666667,2595,Pluviométrica,CORPORACION AUTONOMA REGIONAL DE CUNDINAMARCA,Area Operativa 11 - Cundinamarca-Amazonas,Cundinamarca,Chía,1973-04-15,,PRECIPITACION,PTPM_TT_M,Precipitación total mensual,Mensual,1987-05-01,0.0,50,,900,117.21888,chirps-v2.0.1987.05.tif
124022,21201680,ALTO DE AIRE  [21201680],5.216666667,-73.8,2900,Pluviográfica,CORPORACION AUTONOMA REGIONAL DE CUNDINAMARCA,Area Operativa 11 - Cundinamarca-Amazonas,Cundinamarca,Cucunubá,1986-09-15,,PRECIPITACION,PTPM_TT_M,Precipitación total mensual,Mensual,1987-05-01,137.1,50,,900,113.30862,chirps-v2.0.1987.05.tif
