,CodigoEstacion,NombreEstacion,Latitud,Longitud,Altitud,Categoria,Entidad,AreaOperativa,Departamento,Municipio,FechaInstalacion,FechaSuspension,IdParametro,Etiqueta,DescripcionSerie,Frecuencia,Fecha,Valor,Grado,Calificador,NivelAprobacion,SatValue,SatDesc
735,35060200,AMOLADERO EL [35060200],4.857972222,-73.74538889,2963,Pluviométrica,INSTITUTO DE HIDROLOGIA METEOROLOGIA Y ESTUDIOS AMBIENTALES,Area Operativa 11 - Cundinamarca-Amazonas,Cundinamarca,Guatavita,1972-04-15,,PRECIPITACION,PTPM_TT_M,Precipitación total mensual,Mensual,1988-03-01,32.2,50,,900,32.681244,chirps-v2.0.1988.03.tif
1518,21230090,ARRANCAPLUMAS [21230090],5.20275,-74.72927778,235,Pluviométrica,INSTITUTO DE HIDROLOGIA METEOROLOGIA Y ESTUDIOS AMBIENTALES,Area Operativa 10 - Tolima,Cundinamarca,Guaduas,1980-04-15,,PRECIPITACION,PTPM_TT_M,Precipitación total mensual,Mensual,1988-03-01,75.6,50,,1200,80.38692,chirps-v2.0.1988.03.tif
2385,21205770,BASE AEREA MADRID [21205770],4.728805556,-74.2725,2550,Climática Ordinaria,INSTITUTO DE HIDROLOGIA METEOROLOGIA Y ESTUDIOS AMBIENTALES,Area Operativa 11 - Cundinamarca-Amazonas,Cundinamarca,Madrid,1974-07-15,,PRECIPITACION,PTPM_TT_M,Precipitación total mensual,Mensual,1988-03-01,11.3,50,,900,31.508076,chirps-v2.0.1988.03.tif
3069,21230120,BELLEZA LA [21230120],4.985388889,-74.58111111,1200,Pluviométrica,INSTITUTO DE HIDROLOGIA METEOROLOGIA Y ESTUDIOS AMBIENTALES,Area Operativa 11 - Cundinamarca-Amazonas,Cundinamarca,Chaguaní,1986-12-15,,PRECIPITACION,PTPM_TT_M,Precipitación total mensual,Mensual,1988-03-01,187.7,50,,900,73.50838,chirps-v2.0.1988.03.tif
3893,21205480,IBERIA LA  [21205480],5.033333333,-73.71666667,2760,Climática Principal,CORPORACION AUTONOMA REGIONAL DE CUNDINAMARCA,Area Operativa 11 - Cundinamarca-Amazonas,Cundinamarca,Chocontá,1955-08-15,,PRECIPITACION,PTPM_TT_M,Precipitación total mensual,Mensual,1988-03-01,16.1,50,,900,18.806501,chirps-v2.0.1988.03.tif
4049,23060060,ICALI  [23060060],4.95,-74.41666667,1380,Pluviométrica,FEDERACION NACIONAL DE CAFETEROS,Area Operativa 11 - Cundinamarca-Amazonas,Cundinamarca,Sasaima,1965-03-15,,PRECIPITACION,PTPM_TT_M,Precipitación total mensual,Mensual,1988-03-01,45.0,50,,900,55.960133,chirps-v2.0.1988.03.tif
4224,21195120,ITA VALSALICE  - AUT [21195120],4.39292,-74.39272,1421,Climática Principal,INSTITUTO DE HIDROLOGIA METEOROLOGIA Y ESTUDIOS AMBIENTALES,Area Operativa 11 - Cundinamarca-Amazonas,Cundinamarca,Silvania,1989-02-15,,PRECIPITACION,PTPM_TT_M,Precipitación total mensual,Mensual,1988-03-01,62.1,50,,900,47.350914,chirps-v2.0.1988.03.tif
4746,21235010,JERUSALEN [21235010],4.561805556,-74.70238889,297,Climática Ordinaria,INSTITUTO DE HIDROLOGIA METEOROLOGIA Y ESTUDIOS AMBIENTALES,Area Operativa 10 - Tolima,Cundinamarca,Jerusalén,1974-11-15,,PRECIPITACION,PTPM_TT_M,Precipitación total mensual,Mensual,1988-03-01,0.0,50,,1200,34.755318,chirps-v2.0.1988.03.tif
5473,35060050,JUNIN [35060050],4.792222222,-73.66872222,2323,Pluviométrica,INSTITUTO DE HIDROLOGIA METEOROLOGIA Y ESTUDIOS AMBIENTALES,Area Operativa 11 - Cundinamarca-Amazonas,Cundinamarca,Junín,1962-05-15,,PRECIPITACION,PTPM_TT_M,Precipitación total mensual,Mensual,1988-03-01,48.9,50,,900,38.473465,chirps-v2.0.1988.03.tif
6218,24015110,LA BOYERA - AUT [24015110],5.303805556,-73.85175,2610,Climática Principal,INSTITUTO DE HIDROLOGIA METEOROLOGIA Y ESTUDIOS AMBIENTALES,Area Operativa 11 - Cundinamarca-Amazonas,Cundinamarca,Ubaté,1960-03-15,,PRECIPITACION,PTPM_TT_M,Precipitación total mensual,Mensual,1988-03-01,35.8,50,,900,30.851458,chirps-v2.0.1988.03.tif
6378,21205910,LA COSECHA - AUT [21205910],4.98922,-74.00119,2570,Climática Principal,INSTITUTO DE HIDROLOGIA METEOROLOGIA Y ESTUDIOS AMBIENTALES,Area Operativa 11 - Cundinamarca-Amazonas,Cundinamarca,Zipaquirá,1976-09-15,,PRECIPITACION,PTPM_TT_M,Precipitación total mensual,Mensual,1988-03-01,10.8,50,,900,28.208435,chirps-v2.0.1988.03.tif
6799,21201690,LADERA GRANDE  [21201690],5.166666667,-73.86666667,2950,Pluviográfica,CORPORACION AUTONOMA REGIONAL DE CUNDINAMARCA,Area Operativa 11 - Cundinamarca-Amazonas,Cundinamarca,Tausa,1986-09-15,,PRECIPITACION,PTPM_TT_M,Precipitación total mensual,Mensual,1988-03-01,25.9,50,,900,22.567892,chirps-v2.0.1988.03.tif
6840,35020370,LAG DE UBAQUE  [35020370],4.5,-73.93333333,2200,Pluviométrica,EMPRESA DE ACUEDUCTO Y ALCANTARILLADO DE BOGOTA E.S.P,Area Operativa 11 - Cundinamarca-Amazonas,Cundinamarca,Ubaque,1970-01-15,,PRECIPITACION,PTPM_TT_M,Precipitación total mensual,Mensual,1988-03-01,34.0,50,,900,38.10964,chirps-v2.0.1988.03.tif
7429,35030160,LAGUNA CHINGAZA  [35030160],4.533333333,-73.75,3250,Pluviométrica,EMPRESA DE ACUEDUCTO Y ALCANTARILLADO DE BOGOTA E.S.P,Area Operativa 11 - Cundinamarca-Amazonas,Cundinamarca,Fómeque,1966-03-15,,PRECIPITACION,PTPM_TT_M,Precipitación total mensual,Mensual,1988-03-01,37.5,50,,900,34.97424,chirps-v2.0.1988.03.tif
7741,35020380,LAGUNA MARRANOS  [35020380],4.65,-73.83333333,3090,Pluviométrica,EMPRESA DE ACUEDUCTO Y ALCANTARILLADO DE BOGOTA E.S.P,Area Operativa 11 - Cundinamarca-Amazonas,Cundinamarca,La Calera,1979-08-15,,PRECIPITACION,PTPM_TT_M,Precipitación total mensual,Mensual,1988-03-01,8.1,50,,900,42.444862,chirps-v2.0.1988.03.tif
7976,35030180,LAGUNA SECA  [35030180],4.666666667,-73.76666667,3620,Pluviométrica,EMPRESA DE ACUEDUCTO Y ALCANTARILLADO DE BOGOTA E.S.P,Area Operativa 11 - Cundinamarca-Amazonas,Cundinamarca,Fómeque,1987-04-15,,PRECIPITACION,PTPM_TT_M,Precipitación total mensual,Mensual,1988-03-01,12.0,50,,900,32.82048,chirps-v2.0.1988.03.tif
8239,21201190,LAGUNITAS [21201190],5.214527778,-73.90725,3100,Pluviométrica,INSTITUTO DE HIDROLOGIA METEOROLOGIA Y ESTUDIOS AMBIENTALES,Area Operativa 11 - Cundinamarca-Amazonas,Cundinamarca,Tausa,1985-03-15,,PRECIPITACION,PTPM_TT_M,Precipitación total mensual,Mensual,1988-03-01,39.8,50,,900,21.095684,chirps-v2.0.1988.03.tif
8679,35030080,LAS CASAS [35030080],4.441166667,-73.93638889,2100,Pluviográfica,INSTITUTO DE HIDROLOGIA METEOROLOGIA Y ESTUDIOS AMBIENTALES,Area Operativa 11 - Cundinamarca-Amazonas,Cundinamarca,Cáqueza,1986-05-15,,PRECIPITACION,PTPM_TT_M,Precipitación total mensual,Mensual,1988-03-01,9.5,50,,900,33.953377,chirps-v2.0.1988.03.tif
9254,24010070,LETICIA [24010070],5.303194444,-73.70975,2650,Pluviométrica,INSTITUTO DE HIDROLOGIA METEOROLOGIA Y ESTUDIOS AMBIENTALES,Area Operativa 11 - Cundinamarca-Amazonas,Cundinamarca,Lenguazaque,1974-02-15,,PRECIPITACION,PTPM_TT_M,Precipitación total mensual,Mensual,1988-03-01,29.0,50,,900,21.732775,chirps-v2.0.1988.03.tif
9666,21201700,LLANO EL  [21201700],5.183333333,-73.83333333,2850,Pluviográfica,CORPORACION AUTONOMA REGIONAL DE CUNDINAMARCA,Area Operativa 11 - Cundinamarca-Amazonas,Cundinamarca,Suesca,1988-03-15,,PRECIPITACION,PTPM_TT_M,Precipitación total mensual,Mensual,1988-03-01,0.2,50,,900,20.702503,chirps-v2.0.1988.03.tif
9709,35025050,LLANO LARGO [35025050],4.482833333,-74.03027778,2980,Climática Ordinaria,INSTITUTO DE HIDROLOGIA METEOROLOGIA Y ESTUDIOS AMBIENTALES,Area Operativa 11 - Cundinamarca-Amazonas,Cundinamarca,Ubaque,1986-04-15,,PRECIPITACION,PTPM_TT_M,Precipitación total mensual,Mensual,1988-03-01,41.5,50,,900,28.798697,chirps-v2.0.1988.03.tif
10190,21201330,LOCAL EL  [21201330],4.983333333,-73.7,2950,Pluviográfica,CORPORACION AUTONOMA REGIONAL DE CUNDINAMARCA,Area Operativa 11 - Cundinamarca-Amazonas,Cundinamarca,Sesquilé,1980-06-15,,PRECIPITACION,PTPM_TT_M,Precipitación total mensual,Mensual,1988-03-01,18.4,50,,900,21.092255,chirps-v2.0.1988.03.tif
10260,21201050,LOURDES [21201050],4.982888889,-73.86466667,2750,Pluviométrica,INSTITUTO DE HIDROLOGIA METEOROLOGIA Y ESTUDIOS AMBIENTALES,Area Operativa 11 - Cundinamarca-Amazonas,Cundinamarca,Gachancipá,1985-03-15,,PRECIPITACION,PTPM_TT_M,Precipitación total mensual,Mensual,1988-03-01,44.1,50,,900,29.881607,chirps-v2.0.1988.03.tif
10760,35070230,MACHETA GRANJA AGROP [35070230],5.075111111,-73.57941667,1815,Pluviográfica,INSTITUTO DE HIDROLOGIA METEOROLOGIA Y ESTUDIOS AMBIENTALES,Area Operativa 11 - Cundinamarca-Amazonas,Cundinamarca,Machetá,1979-12-15,,PRECIPITACION,PTPM_TT_M,Precipitación total mensual,Mensual,1988-03-01,14.3,50,,900,24.687626,chirps-v2.0.1988.03.tif
11178,21201740,MANJUI  [21201740],4.8,-74.38333333,3260,Pluviométrica,CORPORACION AUTONOMA REGIONAL DE CUNDINAMARCA,Area Operativa 11 - Cundinamarca-Amazonas,Cundinamarca,Facatativá,1963-04-15,,PRECIPITACION,PTPM_TT_M,Precipitación total mensual,Mensual,1988-03-01,14.0,50,,900,50.316658,chirps-v2.0.1988.03.tif
11780,21200710,MARGARITAS LAS  [21200710],4.833333333,-74.25,2606,Pluviométrica,CORPORACION AUTONOMA REGIONAL DE CUNDINAMARCA,Area Operativa 11 - Cundinamarca-Amazonas,Cundinamarca,Subachoque,1959-08-15,,PRECIPITACION,PTPM_TT_M,Precipitación total mensual,Mensual,1988-03-01,8.0,50,,900,37.15448,chirps-v2.0.1988.03.tif
12443,21206390,MESA LA  [21206390],4.633333333,-74.43333333,1300,Climática Principal,CORPORACION AUTONOMA REGIONAL DE CUNDINAMARCA,Area Operativa 11 - Cundinamarca-Amazonas,Cundinamarca,La Mesa,1985-09-15,,PRECIPITACION,PTPM_TT_M,Precipitación total mensual,Mensual,1988-03-01,37.9,50,,900,43.330833,chirps-v2.0.1988.03.tif
12852,21206080,MESITAS D STA INES  [21206080],4.666666667,-74.46666667,1250,Climática Ordinaria,FEDERACION NACIONAL DE CAFETEROS,Area Operativa 11 - Cundinamarca-Amazonas,Cundinamarca,Cachipay,1966-01-15,,PRECIPITACION,PTPM_TT_M,Precipitación total mensual,Mensual,1988-03-01,64.8,50,,900,41.682133,chirps-v2.0.1988.03.tif
13064,35060130,MINAS LAS [35060130],4.675166667,-73.48213889,23,Pluviométrica,INSTITUTO DE HIDROLOGIA METEOROLOGIA Y ESTUDIOS AMBIENTALES,Area Operativa 11 - Cundinamarca-Amazonas,Cundinamarca,Gachalá,1973-04-15,,PRECIPITACION,PTPM_TT_M,Precipitación total mensual,Mensual,1988-03-01,184.2,50,,900,50.217262,chirps-v2.0.1988.03.tif
13670,21206070,MISIONES  [21206070],4.566666667,-74.3,1540,Climática Ordinaria,FEDERACION NACIONAL DE CAFETEROS,Area Operativa 11 - Cundinamarca-Amazonas,Cundinamarca,El Colegio,1977-02-15,,PRECIPITACION,PTPM_TT_M,Precipitación total mensual,Mensual,1988-03-01,33.2,50,,900,30.263218,chirps-v2.0.1988.03.tif
14120,35020010,MONTERREDONDO [35020010],4.2483,-73.8187,1467,Pluviométrica,INSTITUTO DE HIDROLOGIA METEOROLOGIA Y ESTUDIOS AMBIENTALES,Area Operativa 03 - Meta-Guaviare-Guainía,Cundinamarca,Guayabetal,1951-07-15,,PRECIPITACION,PTPM_TT_M,Precipitación total mensual,Mensual,1988-03-01,23.5,50,,1200,43.861073,chirps-v2.0.1988.03.tif
14784,21205610,MUNA  [21205610],4.55,-74.25,2565,Climática Principal,CORPORACION AUTONOMA REGIONAL DE CUNDINAMARCA,Area Operativa 11 - Cundinamarca-Amazonas,Cundinamarca,Sibaté,1966-07-15,,PRECIPITACION,PTPM_TT_M,Precipitación total mensual,Mensual,1988-03-01,1.2,50,,900,32.302055,chirps-v2.0.1988.03.tif
15048,35020390,MUNDONUEVO  [35020390],4.683333333,-73.86666667,2400,Pluviométrica,EMPRESA DE ACUEDUCTO Y ALCANTARILLADO DE BOGOTA E.S.P,Area Operativa 11 - Cundinamarca-Amazonas,Cundinamarca,La Calera,1971-01-15,,PRECIPITACION,PTPM_TT_M,Precipitación total mensual,Mensual,1988-03-01,29.1,50,,900,45.476604,chirps-v2.0.1988.03.tif
15415,21230110,NARINO RADIO [21230110],4.387805556,-74.838166667,262,Pluviométrica,INSTITUTO DE HIDROLOGIA METEOROLOGIA Y ESTUDIOS AMBIENTALES,Area Operativa 10 - Tolima,Cundinamarca,Nariño,1980-01-15,,PRECIPITACION,PTPM_TT_M,Precipitación total mensual,Mensual,1988-03-01,0.0,50,,900,21.78834,chirps-v2.0.1988.03.tif
15986,21230060,NARINO [21230060],4.398611111,-74.82555556,289,Pluviométrica,INSTITUTO DE HIDROLOGIA METEOROLOGIA Y ESTUDIOS AMBIENTALES,Area Operativa 10 - Tolima,Cundinamarca,Nariño,1974-11-15,,PRECIPITACION,PTPM_TT_M,Precipitación total mensual,Mensual,1988-03-01,8.0,50,,1200,21.78834,chirps-v2.0.1988.03.tif
16586,21190210,NILO [21190210],4.305888889,-74.64866667,322,Pluviométrica,INSTITUTO DE HIDROLOGIA METEOROLOGIA Y ESTUDIOS AMBIENTALES,Area Operativa 10 - Tolima,Cundinamarca,Nilo,1971-11-15,,PRECIPITACION,PTPM_TT_M,Precipitación total mensual,Mensual,1988-03-01,10.0,50,,1200,26.307137,chirps-v2.0.1988.03.tif
17256,24015190,NOVILLEROS  [24015190],5.333333333,-73.78333333,2550,Climática Ordinaria,CORPORACION AUTONOMA REGIONAL DE CUNDINAMARCA,Area Operativa 11 - Cundinamarca-Amazonas,Cundinamarca,Ubaté,1965-12-15,,PRECIPITACION,PTPM_TT_M,Precipitación total mensual,Mensual,1988-03-01,16.7,50,,900,27.719597,chirps-v2.0.1988.03.tif
17557,21200160,PANONIA [21200160],5.057972222,-73.73433333,2800,Pluviométrica,INSTITUTO DE HIDROLOGIA METEOROLOGIA Y ESTUDIOS AMBIENTALES,Area Operativa 11 - Cundinamarca-Amazonas,Cundinamarca,Chocontá,1985-03-15,,PRECIPITACION,PTPM_TT_M,Precipitación total mensual,Mensual,1988-03-01,9.0,50,,900,18.878654,chirps-v2.0.1988.03.tif
19354,21200380,PANTANO REDONDO 2  [21200380],5.033333333,-74.03333333,3000,Pluviográfica,ESTACIONES PARTICULARES,Area Operativa 11 - Cundinamarca-Amazonas,Cundinamarca,Zipaquirá,1950-08-15,,PRECIPITACION,PTPM_TT_M,Precipitación total mensual,Mensual,1988-03-01,0.0,50,,900,33.001488,chirps-v2.0.1988.03.tif
19733,23060040,PARAISO EL  [23060040],5.316666667,-74.48333333,1450,Pluviométrica,FEDERACION NACIONAL DE CAFETEROS,Area Operativa 11 - Cundinamarca-Amazonas,Cundinamarca,Caparrapí,1982-01-15,,PRECIPITACION,PTPM_TT_M,Precipitación total mensual,Mensual,1988-03-01,64.0,50,,900,70.621086,chirps-v2.0.1988.03.tif
19863,21201340,PARQUE SOPO  [21201340],4.75,-74.01666667,2540,Pluviográfica,CORPORACION AUTONOMA REGIONAL DE CUNDINAMARCA,Area Operativa 11 - Cundinamarca-Amazonas,Cundinamarca,Sopó,1980-03-15,,PRECIPITACION,PTPM_TT_M,Precipitación total mensual,Mensual,1988-03-01,29.8,50,,900,33.102867,chirps-v2.0.1988.03.tif
19899,35030230,PARRADOS SAN ISIDR  [35030230],4.383333333,-73.76666667,3500,Pluviométrica,EMPRESA DE ACUEDUCTO Y ALCANTARILLADO DE BOGOTA E.S.P,Area Operativa 11 - Cundinamarca-Amazonas,Cundinamarca,Fómeque,1987-05-15,,PRECIPITACION,PTPM_TT_M,Precipitación total mensual,Mensual,1988-03-01,41.6,50,,900,31.074547,chirps-v2.0.1988.03.tif
20398,21195190,PASCA - AUT [21195190],4.310111111,-74.31175,2256,Agrometeorológica,INSTITUTO DE HIDROLOGIA METEOROLOGIA Y ESTUDIOS AMBIENTALES,Area Operativa 11 - Cundinamarca-Amazonas,Cundinamarca,Pasca,2005-08-26,,PRECIPITACION,PTPM_TT_M,Precipitación total mensual,Mensual,1988-03-01,115.6,4,,900,36.588318,chirps-v2.0.1988.03.tif
20993,24010490,PEDREGAL EL  [24010490],5.233333333,-73.86666667,2900,Pluviométrica,CORPORACION AUTONOMA REGIONAL DE CUNDINAMARCA,Area Operativa 11 - Cundinamarca-Amazonas,Cundinamarca,Sutatausa,1966-08-15,,PRECIPITACION,PTPM_TT_M,Precipitación total mensual,Mensual,1988-03-01,2.0,50,,900,21.449322,chirps-v2.0.1988.03.tif
21056,21201820,PENAS BLANCAS  [21201820],4.55,-74.38333333,2450,Pluviográfica,CORPORACION AUTONOMA REGIONAL DE CUNDINAMARCA,Area Operativa 11 - Cundinamarca-Amazonas,Cundinamarca,El Colegio,1988-02-15,,PRECIPITACION,PTPM_TT_M,Precipitación total mensual,Mensual,1988-03-01,32.7,50,,900,35.789387,chirps-v2.0.1988.03.tif
21264,23060180,PENON EL [23060180],5.253444444,-74.2945,1400,Pluviométrica,INSTITUTO DE HIDROLOGIA METEOROLOGIA Y ESTUDIOS AMBIENTALES,Area Operativa 11 - Cundinamarca-Amazonas,Cundinamarca,El Peñón,1974-09-15,,PRECIPITACION,PTPM_TT_M,Precipitación total mensual,Mensual,1988-03-01,73.0,50,,900,76.32414,chirps-v2.0.1988.03.tif
21756,21190060,PINAR DEL RIO  [21190060],4.366666667,-74.35,1750,Pluviométrica,FEDERACION NACIONAL DE CAFETEROS,Area Operativa 11 - Cundinamarca-Amazonas,Cundinamarca,Silvania,1982-01-15,,PRECIPITACION,PTPM_TT_M,Precipitación total mensual,Mensual,1988-03-01,58.0,50,,900,47.350914,chirps-v2.0.1988.03.tif
21929,21190310,PINAR EL [21190310],4.387972222,-74.32991667,1900,Pluviométrica,INSTITUTO DE HIDROLOGIA METEOROLOGIA Y ESTUDIOS AMBIENTALES,Area Operativa 11 - Cundinamarca-Amazonas,Cundinamarca,Fusagasugá,1980-08-15,,PRECIPITACION,PTPM_TT_M,Precipitación total mensual,Mensual,1988-03-01,170.2,50,,900,27.375053,chirps-v2.0.1988.03.tif
22669,24010270,PINO EL  [24010270],5.25,-73.85,2575,Pluviográfica,CORPORACION AUTONOMA REGIONAL DE CUNDINAMARCA,Area Operativa 11 - Cundinamarca-Amazonas,Cundinamarca,Sutatausa,1960-03-15,,PRECIPITACION,PTPM_TT_M,Precipitación total mensual,Mensual,1988-03-01,23.7,50,,900,29.62527,chirps-v2.0.1988.03.tif
22849,23120190,PINOS LOS  [23120190],5.233333333,-74.03333333,3477,Pluviométrica,CORPORACION AUTONOMA REGIONAL DE CUNDINAMARCA,Area Operativa 11 - Cundinamarca-Amazonas,Cundinamarca,Tausa,1972-12-15,,PRECIPITACION,PTPM_TT_M,Precipitación total mensual,Mensual,1988-03-01,42.0,50,,900,30.435888,chirps-v2.0.1988.03.tif
22918,21200620,PISCIS [21200620],5.079166667,-73.69686111,2820,Pluviométrica,INSTITUTO DE HIDROLOGIA METEOROLOGIA Y ESTUDIOS AMBIENTALES,Area Operativa 11 - Cundinamarca-Amazonas,Cundinamarca,Chocontá,1985-03-15,,PRECIPITACION,PTPM_TT_M,Precipitación total mensual,Mensual,1988-03-01,23.5,50,,900,20.367792,chirps-v2.0.1988.03.tif
23383,35030170,PLAYA LA  [35030170],4.55,-73.76666667,3100,Pluviométrica,EMPRESA DE ACUEDUCTO Y ALCANTARILLADO DE BOGOTA E.S.P,Area Operativa 11 - Cundinamarca-Amazonas,Cundinamarca,Fómeque,1966-03-15,,PRECIPITACION,PTPM_TT_M,Precipitación total mensual,Mensual,1988-03-01,16.4,50,,900,35.058445,chirps-v2.0.1988.03.tif
23721,21201260,PORVENIR EL  [21201260],4.55,-74.31666667,1350,Pluviométrica,FEDERACION NACIONAL DE CAFETEROS,Area Operativa 11 - Cundinamarca-Amazonas,Cundinamarca,El Colegio,1952-02-15,,PRECIPITACION,PTPM_TT_M,Precipitación total mensual,Mensual,1988-03-01,14.4,50,,900,30.263218,chirps-v2.0.1988.03.tif
24063,35060160,POTRERITOS [35060160],4.828805556,-73.76927778,2802,Pluviométrica,INSTITUTO DE HIDROLOGIA METEOROLOGIA Y ESTUDIOS AMBIENTALES,Area Operativa 11 - Cundinamarca-Amazonas,Cundinamarca,Guatavita,1972-08-15,,PRECIPITACION,PTPM_TT_M,Precipitación total mensual,Mensual,1988-03-01,182.1,4,,900,30.894659,chirps-v2.0.1988.03.tif
24504,21200780,POTRERO LARGO [21200780],4.929222222,-73.78047222,2780,Pluviométrica,INSTITUTO DE HIDROLOGIA METEOROLOGIA Y ESTUDIOS AMBIENTALES,Area Operativa 11 - Cundinamarca-Amazonas,Cundinamarca,Guatavita,1985-03-15,,PRECIPITACION,PTPM_TT_M,Precipitación total mensual,Mensual,1988-03-01,19.9,50,,900,25.275635,chirps-v2.0.1988.03.tif
25293,21200440,PRADERA LA  [21200440],5.0,-74.13333333,2703,Pluviométrica,CORPORACION AUTONOMA REGIONAL DE CUNDINAMARCA,Area Operativa 11 - Cundinamarca-Amazonas,Cundinamarca,Subachoque,1951-09-15,,PRECIPITACION,PTPM_TT_M,Precipitación total mensual,Mensual,1988-03-01,7.0,4,,900,31.125156,chirps-v2.0.1988.03.tif
25363,21201310,PREVENTORIO INFANT [21201310],4.465444444,-74.2675,2650,Pluviométrica,INSTITUTO DE HIDROLOGIA METEOROLOGIA Y ESTUDIOS AMBIENTALES,Area Operativa 11 - Cundinamarca-Amazonas,Cundinamarca,Sibaté,1985-03-15,,PRECIPITACION,PTPM_TT_M,Precipitación total mensual,Mensual,1988-03-01,8.2,50,,900,32.55328,chirps-v2.0.1988.03.tif
26458,21205570,PRIMAVERA LA  [21205570],4.85,-74.21666667,2590,Climática Principal,CORPORACION AUTONOMA REGIONAL DE CUNDINAMARCA,Area Operativa 11 - Cundinamarca-Amazonas,Cundinamarca,Subachoque,1965-06-15,,PRECIPITACION,PTPM_TT_M,Precipitación total mensual,Mensual,1988-03-01,9.2,50,,900,37.664986,chirps-v2.0.1988.03.tif
26651,21205980,PROVIDENCIA GRANJA [21205980],4.792388889,-74.20091667,2560,Climática Ordinaria,INSTITUTO DE HIDROLOGIA METEOROLOGIA Y ESTUDIOS AMBIENTALES,Area Operativa 11 - Cundinamarca-Amazonas,Cundinamarca,Tenjo,1977-02-15,,PRECIPITACION,PTPM_TT_M,Precipitación total mensual,Mensual,1988-03-01,45.7,50,,900,27.072422,chirps-v2.0.1988.03.tif
27367,24010380,PTE EL  [24010380],5.35,-73.66666667,2810,Pluviográfica,CORPORACION AUTONOMA REGIONAL DE CUNDINAMARCA,Area Operativa 11 - Cundinamarca-Amazonas,Cundinamarca,Guachetá,1962-12-15,,PRECIPITACION,PTPM_TT_M,Precipitación total mensual,Mensual,1988-03-01,16.3,50,,900,23.790033,chirps-v2.0.1988.03.tif
28247,21205160,RAMADA LA  [21205160],4.716666667,-74.18333333,2545,Climática Ordinaria,CORPORACION AUTONOMA REGIONAL DE CUNDINAMARCA,Area Operativa 11 - Cundinamarca-Amazonas,Cundinamarca,Funza,1937-12-15,,PRECIPITACION,PTPM_TT_M,Precipitación total mensual,Mensual,1988-03-01,19.3,50,,900,23.358217,chirps-v2.0.1988.03.tif
28523,21201370,REFUGIO EL  [21201370],4.65,-74.46666667,1250,Pluviométrica,FEDERACION NACIONAL DE CAFETEROS,Area Operativa 11 - Cundinamarca-Amazonas,Cundinamarca,La Mesa,1977-08-15,,PRECIPITACION,PTPM_TT_M,Precipitación total mensual,Mensual,1988-03-01,110.0,50,,900,41.682133,chirps-v2.0.1988.03.tif
28930,21205410,REPRESA DEL NEUSA  [21205410],5.15,-73.98333333,3100,Climática Principal,CORPORACION AUTONOMA REGIONAL DE CUNDINAMARCA,Area Operativa 11 - Cundinamarca-Amazonas,Cundinamarca,Cogua,1947-05-15,,PRECIPITACION,PTPM_TT_M,Precipitación total mensual,Mensual,1988-03-01,21.1,50,,900,21.42439,chirps-v2.0.1988.03.tif
29282,21201710,REPRESA SISGA  [21201710],5.083333333,-73.73333333,2675,Pluviográfica,CORPORACION AUTONOMA REGIONAL DE CUNDINAMARCA,Area Operativa 11 - Cundinamarca-Amazonas,Cundinamarca,Chocontá,1966-07-15,,PRECIPITACION,PTPM_TT_M,Precipitación total mensual,Mensual,1988-03-01,12.5,50,,900,18.878654,chirps-v2.0.1988.03.tif
29926,21205390,REPRESA SISGA  [21205390],5.083333333,-73.73333333,2675,Climática Ordinaria,CORPORACION AUTONOMA REGIONAL DE CUNDINAMARCA,Area Operativa 11 - Cundinamarca-Amazonas,Cundinamarca,Chocontá,1939-11-15,,PRECIPITACION,PTPM_TT_M,Precipitación total mensual,Mensual,1988-03-01,12.5,50,,900,18.878654,chirps-v2.0.1988.03.tif
30261,21201550,ROBLE EL [21201550],4.796666667,-74.22638889,2560,Pluviométrica,INSTITUTO DE HIDROLOGIA METEOROLOGIA Y ESTUDIOS AMBIENTALES,Area Operativa 11 - Cundinamarca-Amazonas,Cundinamarca,Madrid,1985-07-15,,PRECIPITACION,PTPM_TT_M,Precipitación total mensual,Mensual,1988-03-01,24.0,50,,900,27.072422,chirps-v2.0.1988.03.tif
30741,23065100,SABANETA [23065100],4.90175,-74.30738889,2475,Climática Ordinaria,INSTITUTO DE HIDROLOGIA METEOROLOGIA Y ESTUDIOS AMBIENTALES,Area Operativa 11 - Cundinamarca-Amazonas,Cundinamarca, La Vega,1986-08-15,,PRECIPITACION,PTPM_TT_M,Precipitación total mensual,Mensual,1988-03-01,225.3,50,,900,47.205833,chirps-v2.0.1988.03.tif
31334,21200880,SALITRE EL - NEUSA  [21200880],5.183333333,-74.0,3140,Pluviográfica,CORPORACION AUTONOMA REGIONAL DE CUNDINAMARCA,Area Operativa 11 - Cundinamarca-Amazonas,Cundinamarca,Tausa,1955-04-15,,PRECIPITACION,PTPM_TT_M,Precipitación total mensual,Mensual,1988-03-01,21.1,50,,900,34.73202,chirps-v2.0.1988.03.tif
31825,23125070,SAN CAYETANO [23125070],5.3,-74.06666667,2200,Climática Ordinaria,INSTITUTO DE HIDROLOGIA METEOROLOGIA Y ESTUDIOS AMBIENTALES,Area Operativa 11 - Cundinamarca-Amazonas,Cundinamarca,San Cayetano,1974-09-15,2008-12-11 00:00:00,PRECIPITACION,PTPM_TT_M,Precipitación total mensual,Mensual,1988-03-01,36.8,50,,900,59.463615,chirps-v2.0.1988.03.tif
32244,21201610,SAN ISIDRO [21201610],4.850288889,-73.89072222,2698,Pluviométrica,INSTITUTO DE HIDROLOGIA METEOROLOGIA Y ESTUDIOS AMBIENTALES,Area Operativa 11 - Cundinamarca-Amazonas,Cundinamarca,Guasca,1987-05-15,,PRECIPITACION,PTPM_TT_M,Precipitación total mensual,Mensual,1988-03-01,85.0,50,,900,32.381023,chirps-v2.0.1988.03.tif
32921,21201720,SAN JORGE GJA  [21201720],4.516666667,-74.2,2890,Pluviográfica,CORPORACION AUTONOMA REGIONAL DE CUNDINAMARCA,Area Operativa 11 - Cundinamarca-Amazonas,Cundinamarca,Soacha,1960-04-15,,PRECIPITACION,PTPM_TT_M,Precipitación total mensual,Mensual,1988-03-01,14.1,50,,900,32.061123,chirps-v2.0.1988.03.tif
33518,21205720,SAN JORGE GRANJA [21205720],4.50575,-74.18927778,2900,Climática Ordinaria,INSTITUTO DE HIDROLOGIA METEOROLOGIA Y ESTUDIOS AMBIENTALES,Area Operativa 11 - Cundinamarca-Amazonas,Cundinamarca,Soacha,1960-04-15,,PRECIPITACION,PTPM_TT_M,Precipitación total mensual,Mensual,1988-03-01,7.9,50,,900,29.038246,chirps-v2.0.1988.03.tif
34228,21200800,SAN JOSE  [21200800],4.983333333,-73.9,2700,Pluviográfica,CORPORACION AUTONOMA REGIONAL DE CUNDINAMARCA,Area Operativa 11 - Cundinamarca-Amazonas,Cundinamarca,Guasca,1960-10-15,,PRECIPITACION,PTPM_TT_M,Precipitación total mensual,Mensual,1988-03-01,20.1,50,,900,30.61885,chirps-v2.0.1988.03.tif
34466,35030210,SAN JOSE  [35030210],4.533333333,-73.73333333,3200,Pluviométrica,EMPRESA DE ACUEDUCTO Y ALCANTARILLADO DE BOGOTA E.S.P,Area Operativa 11 - Cundinamarca-Amazonas,Cundinamarca,Fómeque,1987-06-15,,PRECIPITACION,PTPM_TT_M,Precipitación total mensual,Mensual,1988-03-01,67.8,50,,900,33.08541,chirps-v2.0.1988.03.tif
34653,21230080,SAN JUAN  [21230080],4.85,-74.66666667,1300,Pluviométrica,FEDERACION NACIONAL DE CAFETEROS,Area Operativa 10 - Tolima,Cundinamarca,San Juan De Rioseco,1982-01-15,,PRECIPITACION,PTPM_TT_M,Precipitación total mensual,Mensual,1988-03-01,21.0,50,,900,57.209255,chirps-v2.0.1988.03.tif
34893,21230070,SAN JUAN D RIOSECO [21230070],4.851277778,-74.62283333,1364,Pluviométrica,INSTITUTO DE HIDROLOGIA METEOROLOGIA Y ESTUDIOS AMBIENTALES,Area Operativa 10 - Tolima,Cundinamarca,San Juan De Rioseco,1974-12-15,,PRECIPITACION,PTPM_TT_M,Precipitación total mensual,Mensual,1988-03-01,21.0,50,,1200,59.33696,chirps-v2.0.1988.03.tif
35898,35030260,SAN LUIS  [35030260],4.483333333,-73.65,2959,Pluviométrica,EMPRESA DE ACUEDUCTO Y ALCANTARILLADO DE BOGOTA E.S.P,Area Operativa 11 - Cundinamarca-Amazonas,Cundinamarca,Fómeque,1990-08-15,,PRECIPITACION,PTPM_TT_M,Precipitación total mensual,Mensual,1988-03-01,0.0,50,,900,38.27984,chirps-v2.0.1988.03.tif
36268,21201250,SAN PEDRO [21201250],4.871638889,-73.96666667,2560,Pluviométrica,INSTITUTO DE HIDROLOGIA METEOROLOGIA Y ESTUDIOS AMBIENTALES,Area Operativa 11 - Cundinamarca-Amazonas,Cundinamarca,Sopó,1980-06-15,2013-02-15 00:00:00,PRECIPITACION,PTPM_TT_M,Precipitación total mensual,Mensual,1988-03-01,56.6,50,,900,27.706663,chirps-v2.0.1988.03.tif
37188,21200110,SAN RAFAEL 1  [21200110],4.7,-73.98333333,2750,Pluviométrica,EMPRESA DE ACUEDUCTO Y ALCANTARILLADO DE BOGOTA E.S.P,Area Operativa 11 - Cundinamarca-Amazonas,Cundinamarca,La Calera,1933-05-15,,PRECIPITACION,PTPM_TT_M,Precipitación total mensual,Mensual,1988-03-01,51.8,50,,900,32.58752,chirps-v2.0.1988.03.tif
37558,21206980,SANTA CRUZ DE SIECHA  - AUT [21206980],4.784277778,-73.87080556,3100,Agrometeorológica,INSTITUTO DE HIDROLOGIA METEOROLOGIA Y ESTUDIOS AMBIENTALES,Area Operativa 11 - Cundinamarca-Amazonas,Cundinamarca,Guasca,2005-11-08,,PRECIPITACION,PTPM_TT_M,Precipitación total mensual,Mensual,1988-03-01,53.7,50,,900,35.965534,chirps-v2.0.1988.03.tif
38677,21200750,BOJACA  [21200750],4.733333333,-74.33333333,2603,Pluviométrica,CORPORACION AUTONOMA REGIONAL DE CUNDINAMARCA,Area Operativa 11 - Cundinamarca-Amazonas,Cundinamarca,Bojacá,1960-03-15,,PRECIPITACION,PTPM_TT_M,Precipitación total mensual,Mensual,1988-03-01,11.5,50,,900,37.026432,chirps-v2.0.1988.03.tif
38727,35025060,BOLSA LA [35025060],4.575416667,-73.98141667,3195,Climática Ordinaria,INSTITUTO DE HIDROLOGIA METEOROLOGIA Y ESTUDIOS AMBIENTALES,Area Operativa 11 - Cundinamarca-Amazonas,Cundinamarca,Choachí,1987-05-15,,PRECIPITACION,PTPM_TT_M,Precipitación total mensual,Mensual,1988-03-01,16.5,4,,900,35.504345,chirps-v2.0.1988.03.tif
39131,21201870,BOMBAS SESQUILE  [21201870],5.05,-73.8,2600,Pluviográfica,CORPORACION AUTONOMA REGIONAL DE CUNDINAMARCA,Area Operativa 11 - Cundinamarca-Amazonas,Cundinamarca,Sesquilé,1984-01-15,,PRECIPITACION,PTPM_TT_M,Precipitación total mensual,Mensual,1988-03-01,24.0,50,,900,30.200432,chirps-v2.0.1988.03.tif
40116,21201730,CAMPOBELLO  [21201730],4.766666667,-74.36666667,2490,Pluviométrica,CORPORACION AUTONOMA REGIONAL DE CUNDINAMARCA,Area Operativa 11 - Cundinamarca-Amazonas,Cundinamarca,Madrid,1985-07-15,,PRECIPITACION,PTPM_TT_M,Precipitación total mensual,Mensual,1988-03-01,14.6,50,,900,48.059452,chirps-v2.0.1988.03.tif
40164,23060070,CANAIMA  [23060070],5.35,-74.41666667,1550,Pluviométrica,FEDERACION NACIONAL DE CAFETEROS,Area Operativa 11 - Cundinamarca-Amazonas,Cundinamarca,La Palma,1991-01-15,,PRECIPITACION,PTPM_TT_M,Precipitación total mensual,Mensual,1988-03-01,0.0,50,,900,77.46271,chirps-v2.0.1988.03.tif
41389,21200270,SAUCIO  [21200270],5.108833333,-73.70627778,2640,Pluviográfica,CORPORACION AUTONOMA REGIONAL DE CUNDINAMARCA,Area Operativa 11 - Cundinamarca-Amazonas,Cundinamarca,Chocontá,1947-06-15,,PRECIPITACION,PTPM_TT_M,Precipitación total mensual,Mensual,1988-03-01,16.0,50,,900,21.077276,chirps-v2.0.1988.03.tif
42269,21200510,SIBATE APOSTOLICA  [21200510],4.516666667,-74.25,2618,Pluviográfica,CORPORACION AUTONOMA REGIONAL DE CUNDINAMARCA,Area Operativa 11 - Cundinamarca-Amazonas,Cundinamarca,Sibaté,1956-05-15,,PRECIPITACION,PTPM_TT_M,Precipitación total mensual,Mensual,1988-03-01,7.5,4,,900,35.2031,chirps-v2.0.1988.03.tif
42565,23060290,SILENCIO EL [23060290],4.973166667,-74.41205556,1425,Pluviométrica,INSTITUTO DE HIDROLOGIA METEOROLOGIA Y ESTUDIOS AMBIENTALES,Area Operativa 11 - Cundinamarca-Amazonas,Cundinamarca,Sasaima,1986-03-15,,PRECIPITACION,PTPM_TT_M,Precipitación total mensual,Mensual,1988-03-01,48.0,50,,900,55.960133,chirps-v2.0.1988.03.tif
43845,21201360,STA INES  [21201360],4.816666667,-74.13333333,2550,Pluviométrica,CORPORACION AUTONOMA REGIONAL DE CUNDINAMARCA,Area Operativa 11 - Cundinamarca-Amazonas,Cundinamarca,Tenjo,1980-03-15,,PRECIPITACION,PTPM_TT_M,Precipitación total mensual,Mensual,1988-03-01,21.0,50,,900,30.206013,chirps-v2.0.1988.03.tif
44319,21201760,STA ISABEL  [21201760],4.983333333,-74.06666667,2680,Pluviométrica,CORPORACION AUTONOMA REGIONAL DE CUNDINAMARCA,Area Operativa 11 - Cundinamarca-Amazonas,Cundinamarca,Tabio,1968-05-15,,PRECIPITACION,PTPM_TT_M,Precipitación total mensual,Mensual,1988-03-01,0.0,50,,900,27.653725,chirps-v2.0.1988.03.tif
44692,21201030,STA TERESA  [21201030],4.666666667,-73.93333333,3080,Pluviográfica,CORPORACION AUTONOMA REGIONAL DE CUNDINAMARCA,Area Operativa 11 - Cundinamarca-Amazonas,Cundinamarca,La Calera,1970-09-15,,PRECIPITACION,PTPM_TT_M,Precipitación total mensual,Mensual,1988-03-01,64.7,50,,900,41.081017,chirps-v2.0.1988.03.tif
44986,21201620,SUESCA [21201620],5.109583333,-73.79697222,2575,Pluviométrica,INSTITUTO DE HIDROLOGIA METEOROLOGIA Y ESTUDIOS AMBIENTALES,Area Operativa 11 - Cundinamarca-Amazonas,Cundinamarca,Suesca,1987-05-15,2019-05-03 14:59:00,PRECIPITACION,PTPM_TT_M,Precipitación total mensual,Mensual,1988-03-01,5.1,50,,900,26.509102,chirps-v2.0.1988.03.tif
45416,35060020,SUEVA [35060020],4.81,-73.70716667,1965,Pluviométrica,INSTITUTO DE HIDROLOGIA METEOROLOGIA Y ESTUDIOS AMBIENTALES,Area Operativa 11 - Cundinamarca-Amazonas,Cundinamarca,Junín,1972-07-15,,PRECIPITACION,PTPM_TT_M,Precipitación total mensual,Mensual,1988-03-01,41.3,4,,900,34.869057,chirps-v2.0.1988.03.tif
45951,23060200,SUPATA [23060200],5.059694444,-74.239166667,1798,Pluviométrica,INSTITUTO DE HIDROLOGIA METEOROLOGIA Y ESTUDIOS AMBIENTALES,Area Operativa 11 - Cundinamarca-Amazonas,Cundinamarca,Supata,1974-09-15,,PRECIPITACION,PTPM_TT_M,Precipitación total mensual,Mensual,1988-03-01,246.9,50,,900,47.9194,chirps-v2.0.1988.03.tif
46638,24015210,SUTATAUSA  [24015210],5.25,-73.85,2700,Climática Ordinaria,CORPORACION AUTONOMA REGIONAL DE CUNDINAMARCA,Area Operativa 11 - Cundinamarca-Amazonas,Cundinamarca,Sutatausa,1965-04-15,,PRECIPITACION,PTPM_TT_M,Precipitación total mensual,Mensual,1988-03-01,16.0,50,,900,29.62527,chirps-v2.0.1988.03.tif
47043,21205650,TABIO  [21205650],4.766666667,-73.93333333,2620,Climática Principal,CORPORACION AUTONOMA REGIONAL DE CUNDINAMARCA,Area Operativa 11 - Cundinamarca-Amazonas,Cundinamarca,Tabio,1970-07-15,,PRECIPITACION,PTPM_TT_M,Precipitación total mensual,Mensual,1988-03-01,9.5,50,,900,35.9202,chirps-v2.0.1988.03.tif
47296,21201630,TABIO GRANJA [21201630],4.933055556,-74.06561111,2600,Pluviográfica,INSTITUTO DE HIDROLOGIA METEOROLOGIA Y ESTUDIOS AMBIENTALES,Area Operativa 11 - Cundinamarca-Amazonas,Cundinamarca,Tabio,1987-05-15,,PRECIPITACION,PTPM_TT_M,Precipitación total mensual,Mensual,1988-03-01,8.2,50,,900,27.480537,chirps-v2.0.1988.03.tif
47986,24010280,TAPIAS  [24010280],5.3,-73.71666667,2585,Pluviográfica,CORPORACION AUTONOMA REGIONAL DE CUNDINAMARCA,Area Operativa 11 - Cundinamarca-Amazonas,Cundinamarca,Lenguazaque,1960-03-15,,PRECIPITACION,PTPM_TT_M,Precipitación total mensual,Mensual,1988-03-01,15.5,50,,900,21.732775,chirps-v2.0.1988.03.tif
48314,35060170,TASAJERAS [35060170],4.885694444,-73.60036111,2502,Pluviométrica,INSTITUTO DE HIDROLOGIA METEOROLOGIA Y ESTUDIOS AMBIENTALES,Area Operativa 11 - Cundinamarca-Amazonas,Cundinamarca,Gachetá,1972-02-15,,PRECIPITACION,PTPM_TT_M,Precipitación total mensual,Mensual,1988-03-01,67.0,50,,900,37.51938,chirps-v2.0.1988.03.tif
48899,35060150,TEMBLADARES [35060150],4.704861111,-73.66527778,2878,Pluviométrica,INSTITUTO DE HIDROLOGIA METEOROLOGIA Y ESTUDIOS AMBIENTALES,Area Operativa 11 - Cundinamarca-Amazonas,Cundinamarca,Junín,1972-02-15,,PRECIPITACION,PTPM_TT_M,Precipitación total mensual,Mensual,1988-03-01,73.4,50,,900,40.67492,chirps-v2.0.1988.03.tif
49544,21200690,TESORO-VERTIENTES  [21200690],4.8,-74.31666667,2610,Pluviométrica,CORPORACION AUTONOMA REGIONAL DE CUNDINAMARCA,Area Operativa 11 - Cundinamarca-Amazonas,Cundinamarca,Facatativá,1931-08-15,,PRECIPITACION,PTPM_TT_M,Precipitación total mensual,Mensual,1988-03-01,30.0,50,,900,44.976006,chirps-v2.0.1988.03.tif
50174,21195030,TIBACUY GJA  [21195030],4.35,-74.41666667,1550,Climática Ordinaria,FEDERACION NACIONAL DE CAFETEROS,Area Operativa 11 - Cundinamarca-Amazonas,Cundinamarca,Tibacuy,1951-12-15,,PRECIPITACION,PTPM_TT_M,Precipitación total mensual,Mensual,1988-03-01,72.8,50,,900,39.40603,chirps-v2.0.1988.03.tif
50271,21190030,TIBACUY [21190030],4.348055556,-74.45447222,1635,Pluviográfica,INSTITUTO DE HIDROLOGIA METEOROLOGIA Y ESTUDIOS AMBIENTALES,Area Operativa 11 - Cundinamarca-Amazonas,Cundinamarca,Tibacuy,1986-10-15,,PRECIPITACION,PTPM_TT_M,Precipitación total mensual,Mensual,1988-03-01,21.7,50,,900,42.819954,chirps-v2.0.1988.03.tif
51084,21205420,TIBAITATA [21205420],4.691416667,-74.209,2543,Agrometeorológica,INSTITUTO DE HIDROLOGIA METEOROLOGIA Y ESTUDIOS AMBIENTALES,Area Operativa 11 - Cundinamarca-Amazonas,Cundinamarca,Mosquera,1954-03-15,,PRECIPITACION,PTPM_TT_M,Precipitación total mensual,Mensual,1988-03-01,10.5,50,,900,26.36505,chirps-v2.0.1988.03.tif
51582,21201270,TIBAR EL [21201270],4.816666667,-74.23333333,2550,Pluviométrica,INSTITUTO DE HIDROLOGIA METEOROLOGIA Y ESTUDIOS AMBIENTALES,Area Operativa 11 - Cundinamarca-Amazonas,Cundinamarca,Madrid,1980-12-15,2002-02-15 00:00:00,PRECIPITACION,PTPM_TT_M,Precipitación total mensual,Mensual,1988-03-01,19.0,50,,900,30.927456,chirps-v2.0.1988.03.tif
51904,21206310,TISQUESUSA  [21206310],4.816666667,-74.31666667,2570,Climática Principal,CORPORACION AUTONOMA REGIONAL DE CUNDINAMARCA,Area Operativa 11 - Cundinamarca-Amazonas,Cundinamarca,Facatativá,1986-10-15,,PRECIPITACION,PTPM_TT_M,Precipitación total mensual,Mensual,1988-03-01,27.3,50,,900,44.976006,chirps-v2.0.1988.03.tif
52086,21201100,TOCAIMA [21201100],4.466666667,-74.65,490,Pluviométrica,INSTITUTO DE HIDROLOGIA METEOROLOGIA Y ESTUDIOS AMBIENTALES,Area Operativa 11 - Cundinamarca-Amazonas,Cundinamarca,Tocaima,1974-11-15,,PRECIPITACION,PTPM_TT_M,Precipitación total mensual,Mensual,1988-03-01,4.0,50,,900,33.862164,chirps-v2.0.1988.03.tif
52650,21201040,TOCANCIPA  [21201040],4.966666667,-73.91666667,2549,Pluviométrica,CORPORACION AUTONOMA REGIONAL DE CUNDINAMARCA,Area Operativa 11 - Cundinamarca-Amazonas,Cundinamarca,Tocancipá,1970-11-15,,PRECIPITACION,PTPM_TT_M,Precipitación total mensual,Mensual,1988-03-01,4.5,50,,900,30.61885,chirps-v2.0.1988.03.tif
52835,35060230,TRES ESQUINAS [35060230],4.781416667,-73.48905556,1943,Pluviométrica,INSTITUTO DE HIDROLOGIA METEOROLOGIA Y ESTUDIOS AMBIENTALES,Area Operativa 11 - Cundinamarca-Amazonas,Cundinamarca,Ubalá,1972-02-15,,PRECIPITACION,PTPM_TT_M,Precipitación total mensual,Mensual,1988-03-01,52.0,50,,900,54.941147,chirps-v2.0.1988.03.tif
53455,23060050,TRIANGULO EL  [23060050],4.966666667,-74.43333333,1500,Pluviométrica,FEDERACION NACIONAL DE CAFETEROS,Area Operativa 11 - Cundinamarca-Amazonas,Cundinamarca,Sasaima,1956-12-15,,PRECIPITACION,PTPM_TT_M,Precipitación total mensual,Mensual,1988-03-01,88.0,50,,900,55.960133,chirps-v2.0.1988.03.tif
53868,23060140,TUSCOLO EL [23060140],5.069444444,-74.608055556,985,Pluviométrica,INSTITUTO DE HIDROLOGIA METEOROLOGIA Y ESTUDIOS AMBIENTALES,Area Operativa 11 - Cundinamarca-Amazonas,Cundinamarca,Guaduas,1971-02-15,,PRECIPITACION,PTPM_TT_M,Precipitación total mensual,Mensual,1988-03-01,77.0,50,,900,82.32051,chirps-v2.0.1988.03.tif
54579,35060180,UBALA [35060180],4.752388889,-73.52858333,1929,Pluviométrica,INSTITUTO DE HIDROLOGIA METEOROLOGIA Y ESTUDIOS AMBIENTALES,Area Operativa 11 - Cundinamarca-Amazonas,Cundinamarca,Ubalá,1959-08-15,,PRECIPITACION,PTPM_TT_M,Precipitación total mensual,Mensual,1988-03-01,38.9,50,,900,52.669113,chirps-v2.0.1988.03.tif
55000,24011090,UBATE GRANJA [24011090],5.327333333,-73.79144444,2555,Pluviográfica,INSTITUTO DE HIDROLOGIA METEOROLOGIA Y ESTUDIOS AMBIENTALES,Area Operativa 11 - Cundinamarca-Amazonas,Cundinamarca,Ubaté,1987-05-15,2010-03-31 00:00:00,PRECIPITACION,PTPM_TT_M,Precipitación total mensual,Mensual,1988-03-01,7.3,50,,900,27.719597,chirps-v2.0.1988.03.tif
55735,35020420,UNE  [35020420],4.4,-74.01666667,2430,Pluviométrica,EMPRESA DE ACUEDUCTO Y ALCANTARILLADO DE BOGOTA E.S.P,Area Operativa 11 - Cundinamarca-Amazonas,Cundinamarca,Une,1947-01-15,,PRECIPITACION,PTPM_TT_M,Precipitación total mensual,Mensual,1988-03-01,19.4,50,,900,31.008017,chirps-v2.0.1988.03.tif
56045,21201320,UNION LA [21201320],4.509361111,-74.26880556,2640,Pluviométrica,INSTITUTO DE HIDROLOGIA METEOROLOGIA Y ESTUDIOS AMBIENTALES,Area Operativa 11 - Cundinamarca-Amazonas,Cundinamarca,Sibaté,1985-03-15,,PRECIPITACION,PTPM_TT_M,Precipitación total mensual,Mensual,1988-03-01,5.0,50,,900,35.2031,chirps-v2.0.1988.03.tif
56741,21200550,UNION LA-EL ROSAL  [21200550],4.866666667,-74.25,2725,Pluviométrica,CORPORACION AUTONOMA REGIONAL DE CUNDINAMARCA,Area Operativa 11 - Cundinamarca-Amazonas,Cundinamarca,Subachoque,1960-01-15,,PRECIPITACION,PTPM_TT_M,Precipitación total mensual,Mensual,1988-03-01,34.0,50,,900,43.276478,chirps-v2.0.1988.03.tif
57321,23060190,UTICA [23060190],5.196083333,-74.4855,497,Pluviométrica,INSTITUTO DE HIDROLOGIA METEOROLOGIA Y ESTUDIOS AMBIENTALES,Area Operativa 11 - Cundinamarca-Amazonas,Cundinamarca,Útica,1974-09-15,,PRECIPITACION,PTPM_TT_M,Precipitación total mensual,Mensual,1988-03-01,67.1,50,,900,59.246883,chirps-v2.0.1988.03.tif
58114,35060120,VEGA LA SAN JUAN [35060120],4.723305556,-73.47055556,1791,Pluviométrica,INSTITUTO DE HIDROLOGIA METEOROLOGIA Y ESTUDIOS AMBIENTALES,Area Operativa 11 - Cundinamarca-Amazonas,Cundinamarca,Gachalá,1972-02-15,,PRECIPITACION,PTPM_TT_M,Precipitación total mensual,Mensual,1988-03-01,152.0,50,,900,52.808964,chirps-v2.0.1988.03.tif
58692,21206290,VENECIA  [21206290],4.866666667,-74.41666667,2673,Climática Principal,CORPORACION AUTONOMA REGIONAL DE CUNDINAMARCA,Area Operativa 11 - Cundinamarca-Amazonas,Cundinamarca,Facatativá,1986-12-15,,PRECIPITACION,PTPM_TT_M,Precipitación total mensual,Mensual,1988-03-01,95.9,50,,900,65.18589,chirps-v2.0.1988.03.tif
59417,21200260,VENTALARGA  [21200260],5.066666667,-74.05,3062,Pluviográfica,CORPORACION AUTONOMA REGIONAL DE CUNDINAMARCA,Area Operativa 11 - Cundinamarca-Amazonas,Cundinamarca,Zipaquirá,1947-06-15,,PRECIPITACION,PTPM_TT_M,Precipitación total mensual,Mensual,1988-03-01,21.8,50,,900,31.394537,chirps-v2.0.1988.03.tif
59816,23060220,VIANI  [23060220],4.866666667,-74.55,1500,Pluviométrica,FEDERACION NACIONAL DE CAFETEROS,Area Operativa 11 - Cundinamarca-Amazonas,Cundinamarca,Vianí,1982-01-15,,PRECIPITACION,PTPM_TT_M,Precipitación total mensual,Mensual,1988-03-01,22.0,50,,900,65.12835,chirps-v2.0.1988.03.tif
59840,21206400,VICTORIA LA  [21206400],4.466666667,-74.6,380,Climática Principal,CORPORACION AUTONOMA REGIONAL DE CUNDINAMARCA,Area Operativa 10 - Tolima,Cundinamarca,Tocaima,1986-12-15,,PRECIPITACION,PTPM_TT_M,Precipitación total mensual,Mensual,1988-03-01,0.5,50,,900,39.72454,chirps-v2.0.1988.03.tif
61524,21201640,VILLAPINZON GRANJA [21201640],5.26375,-73.59086111,2745,Pluviográfica,INSTITUTO DE HIDROLOGIA METEOROLOGIA Y ESTUDIOS AMBIENTALES,Area Operativa 11 - Cundinamarca-Amazonas,Cundinamarca,Villapinzón,1987-05-15,,PRECIPITACION,PTPM_TT_M,Precipitación total mensual,Mensual,1988-03-01,24.3,50,,900,19.840939,chirps-v2.0.1988.03.tif
62389,21201090,VIOTA [21201090],4.442694444,-74.54225,567,Pluviométrica,INSTITUTO DE HIDROLOGIA METEOROLOGIA Y ESTUDIOS AMBIENTALES,Area Operativa 11 - Cundinamarca-Amazonas,Cundinamarca,Viotá,1974-11-15,,PRECIPITACION,PTPM_TT_M,Precipitación total mensual,Mensual,1988-03-01,25.0,50,,900,38.303474,chirps-v2.0.1988.03.tif
63317,21200740,ZIPAQUIRA  [21200740],5.016666667,-74.0,2655,Pluviográfica,CORPORACION AUTONOMA REGIONAL DE CUNDINAMARCA,Area Operativa 11 - Cundinamarca-Amazonas,Cundinamarca,Zipaquirá,1960-02-15,,PRECIPITACION,PTPM_TT_M,Precipitación total mensual,Mensual,1988-03-01,26.5,50,,900,33.001488,chirps-v2.0.1988.03.tif
63914,35070110,GUAYATA LA GRANJA [35070110],4.976083333,-73.49930556,1580,Pluviográfica,INSTITUTO DE HIDROLOGIA METEOROLOGIA Y ESTUDIOS AMBIENTALES,Area Operativa 06 - Boyacá-Casanare-Vichada,Boyacá,Guayatá,1971-07-15,,PRECIPITACION,PTPM_TT_M,Precipitación total mensual,Mensual,1988-03-01,37.2,50,,900,39.67774,chirps-v2.0.1988.03.tif
64708,21201770,ANCLAJE 14  [21201770],4.6,-74.4,1110,Pluviográfica,CORPORACION AUTONOMA REGIONAL DE CUNDINAMARCA,Area Operativa 11 - Cundinamarca-Amazonas,Bogota,"Bogota, D.C",1987-12-15,,PRECIPITACION,PTPM_TT_M,Precipitación total mensual,Mensual,1988-03-01,21.2,50,,900,43.330833,chirps-v2.0.1988.03.tif
65265,21205590,APTO GUAYMARAL  [21205590],4.816666667,-74.08333333,2560,Sinóptica Secundaria,CORPORACION AUTONOMA REGIONAL DE CUNDINAMARCA,Area Operativa 11 - Cundinamarca-Amazonas,Bogota,"Bogota, D.C",1965-08-15,,PRECIPITACION,PTPM_TT_M,Precipitación total mensual,Mensual,1988-03-01,34.6,50,,900,39.168575,chirps-v2.0.1988.03.tif
66011,21200080,ARRAYAN-SAN FCO  [21200080],4.583333333,-74.03333333,3047,Pluviométrica,EMPRESA DE ACUEDUCTO Y ALCANTARILLADO DE BOGOTA E.S.P,Area Operativa 11 - Cundinamarca-Amazonas,Bogota,"Bogota, D.C",1925-01-15,,PRECIPITACION,PTPM_TT_M,Precipitación total mensual,Mensual,1988-03-01,58.5,50,,900,30.055481,chirps-v2.0.1988.03.tif
66321,21201300,AUSTRALIA [21201300],4.39425,-74.132,3050,Pluviométrica,INSTITUTO DE HIDROLOGIA METEOROLOGIA Y ESTUDIOS AMBIENTALES,Area Operativa 11 - Cundinamarca-Amazonas,Bogota,"Bogota, D.C",1985-03-15,,PRECIPITACION,PTPM_TT_M,Precipitación total mensual,Mensual,1988-03-01,16.3,50,,900,24.209791,chirps-v2.0.1988.03.tif
66762,35020350,BETANIA [35020350],4.218888889,-74.14686111,3150,Pluviométrica,INSTITUTO DE HIDROLOGIA METEOROLOGIA Y ESTUDIOS AMBIENTALES,Area Operativa 11 - Cundinamarca-Amazonas,Bogota,"Bogota, D.C",1986-01-15,,PRECIPITACION,PTPM_TT_M,Precipitación total mensual,Mensual,1988-03-01,31.3,50,,900,32.403336,chirps-v2.0.1988.03.tif
67746,21200190,BOCA GRANDE  [21200190],4.333333333,-74.13333333,3460,Pluviométrica,EMPRESA DE ACUEDUCTO Y ALCANTARILLADO DE BOGOTA E.S.P,Area Operativa 11 - Cundinamarca-Amazonas,Bogota,"Bogota, D.C",1941-08-15,,PRECIPITACION,PTPM_TT_M,Precipitación total mensual,Mensual,1988-03-01,31.4,50,,900,26.958992,chirps-v2.0.1988.03.tif
68906,21205690,CAMAVIEJA  [21205690],4.616666667,-74.1,2680,Climática Ordinaria,EMPRESA DE ACUEDUCTO Y ALCANTARILLADO DE BOGOTA E.S.P,Area Operativa 11 - Cundinamarca-Amazonas,Bogota,"Bogota, D.C",1957-11-15,,PRECIPITACION,PTPM_TT_M,Precipitación total mensual,Mensual,1988-03-01,20.7,50,,900,25.555025,chirps-v2.0.1988.03.tif
69328,21201970,CASABLANCA  [21201970],4.566666667,-74.16666667,2665,Pluviométrica,EMPRESA DE ACUEDUCTO Y ALCANTARILLADO DE BOGOTA E.S.P,Area Operativa 11 - Cundinamarca-Amazonas,Bogota,"Bogota, D.C",1976-05-15,,PRECIPITACION,PTPM_TT_M,Precipitación total mensual,Mensual,1988-03-01,10.0,50,,900,30.247108,chirps-v2.0.1988.03.tif
70132,21200310,CERRO DE SUBA  [21200310],4.75,-74.06666667,2691,Pluviométrica,EMPRESA DE ACUEDUCTO Y ALCANTARILLADO DE BOGOTA E.S.P,Area Operativa 11 - Cundinamarca-Amazonas,Bogota,"Bogota, D.C",1947-09-15,,PRECIPITACION,PTPM_TT_M,Precipitación total mensual,Mensual,1988-03-01,35.4,50,,900,33.849747,chirps-v2.0.1988.03.tif
70697,21200850,CISACA  [21200850],4.483333333,-74.08333333,2880,Pluviográfica,CORPORACION AUTONOMA REGIONAL DE CUNDINAMARCA,Area Operativa 11 - Cundinamarca-Amazonas,Bogota,"Bogota, D.C",1962-12-15,,PRECIPITACION,PTPM_TT_M,Precipitación total mensual,Mensual,1988-03-01,12.6,4,,900,23.25778,chirps-v2.0.1988.03.tif
72882,21200130,DELIRIO  [21200130],4.55,-74.05,3000,Pluviométrica,EMPRESA DE ACUEDUCTO Y ALCANTARILLADO DE BOGOTA E.S.P,Area Operativa 11 - Cundinamarca-Amazonas,Bogota,"Bogota, D.C",1933-05-15,,PRECIPITACION,PTPM_TT_M,Precipitación total mensual,Mensual,1988-03-01,50.1,50,,900,31.146465,chirps-v2.0.1988.03.tif
73576,21201150,EDIFICIO M MEJIA  [21201150],4.616666667,-74.08333333,2580,Pluviográfica,CORPORACION AUTONOMA REGIONAL DE CUNDINAMARCA,Area Operativa 11 - Cundinamarca-Amazonas,Bogota,"Bogota, D.C",1981-01-15,,PRECIPITACION,PTPM_TT_M,Precipitación total mensual,Mensual,1988-03-01,28.9,50,,900,27.149683,chirps-v2.0.1988.03.tif
73804,21205791,ELDORADO CATAM - AUT [21205791],4.705583333,-74.15066667,2547,Sinóptica Principal,INSTITUTO DE HIDROLOGIA METEOROLOGIA Y ESTUDIOS AMBIENTALES,Area Operativa 11 - Cundinamarca-Amazonas,Bogota,"Bogota, D.C",2002-10-31,,PRECIPITACION,PTPM_TT_M,Precipitación total mensual,Mensual,1988-03-01,12.2,50,,900,23.358217,chirps-v2.0.1988.03.tif
74421,21205520,ELDORADO DIDACTICA [21205520],4.7,-74.15,2546,Climática Principal,INSTITUTO DE HIDROLOGIA METEOROLOGIA Y ESTUDIOS AMBIENTALES,Area Operativa 11 - Cundinamarca-Amazonas,Bogota,"Bogota, D.C",1959-01-15,2000-03-15 00:00:00,PRECIPITACION,PTPM_TT_M,Precipitación total mensual,Mensual,1988-03-01,13.8,50,,900,23.358217,chirps-v2.0.1988.03.tif
75508,24015150,CARRIZAL  [24015150],5.2,-73.76666667,2860,Climática Ordinaria,CORPORACION AUTONOMA REGIONAL DE CUNDINAMARCA,Area Operativa 11 - Cundinamarca-Amazonas,Cundinamarca,Cucunubá,1960-08-15,,PRECIPITACION,PTPM_TT_M,Precipitación total mensual,Mensual,1988-03-01,38.4,50,,900,16.472998,chirps-v2.0.1988.03.tif
76612,24010020,CARUPA  [24010020],5.35,-73.9,2960,Pluviográfica,CORPORACION AUTONOMA REGIONAL DE CUNDINAMARCA,Area Operativa 11 - Cundinamarca-Amazonas,Cundinamarca,Carmen De Carupa,1961-10-15,,PRECIPITACION,PTPM_TT_M,Precipitación total mensual,Mensual,1988-03-01,17.3,50,,900,34.54752,chirps-v2.0.1988.03.tif
76842,21201750,CHARQUITO  [21201750],4.55,-74.28333333,2550,Pluviométrica,CORPORACION AUTONOMA REGIONAL DE CUNDINAMARCA,Area Operativa 11 - Cundinamarca-Amazonas,Cundinamarca,Soacha,1988-01-15,,PRECIPITACION,PTPM_TT_M,Precipitación total mensual,Mensual,1988-03-01,21.2,50,,900,32.302055,chirps-v2.0.1988.03.tif
77246,21205400,CHECUA-NEMOCON  [21205400],5.116666667,-73.86666667,2580,Climática Principal,CORPORACION AUTONOMA REGIONAL DE CUNDINAMARCA,Area Operativa 11 - Cundinamarca-Amazonas,Cundinamarca,Nemocón,1953-04-15,,PRECIPITACION,PTPM_TT_M,Precipitación total mensual,Mensual,1988-03-01,34.5,50,,900,32.685783,chirps-v2.0.1988.03.tif
77411,21206050,ESCUELA COL INGENIERIA [21206050],4.783333333,-74.05,2650,Climática Principal,INSTITUTO DE HIDROLOGIA METEOROLOGIA Y ESTUDIOS AMBIENTALES,Area Operativa 11 - Cundinamarca-Amazonas,Bogota,"Bogota, D.C",1986-04-15,2008-12-10 00:00:00,PRECIPITACION,PTPM_TT_M,Precipitación total mensual,Mensual,1988-03-01,19.5,50,,900,33.849747,chirps-v2.0.1988.03.tif
77674,21201200,ESCUELA LA UNION [21201200],4.34264,-74.18381,3378,Climática Ordinaria,INSTITUTO DE HIDROLOGIA METEOROLOGIA Y ESTUDIOS AMBIENTALES,Area Operativa 11 - Cundinamarca-Amazonas,Bogota,"Bogota, D.C",2007-08-01,,PRECIPITACION,PTPM_TT_M,Precipitación total mensual,Mensual,1988-03-01,12.0,50,,900,30.544983,chirps-v2.0.1988.03.tif
78499,21202120,FONTIBON ACUEDUCTO  [21202120],4.666666667,-74.15,2545,Pluviométrica,EMPRESA DE ACUEDUCTO Y ALCANTARILLADO DE BOGOTA E.S.P,Area Operativa 11 - Cundinamarca-Amazonas,Bogota,"Bogota, D.C",1955-09-15,,PRECIPITACION,PTPM_TT_M,Precipitación total mensual,Mensual,1988-03-01,19.8,50,,900,28.094814,chirps-v2.0.1988.03.tif
79253,21200320,GRANIZO  [21200320],4.616666667,-74.05,3125,Pluviométrica,EMPRESA DE ACUEDUCTO Y ALCANTARILLADO DE BOGOTA E.S.P,Area Operativa 11 - Cundinamarca-Amazonas,Bogota,"Bogota, D.C",1947-09-15,,PRECIPITACION,PTPM_TT_M,Precipitación total mensual,Mensual,1988-03-01,65.7,50,,900,27.149683,chirps-v2.0.1988.03.tif
79532,21201980,GUADALUPE  - AUT  [21201980],4.59157,-74.05471,3227,Climática Ordinaria,FONDO DE PREVENCION Y ATENCION DE DESASTRES DE BOGOTA DC - FOPAE,Area Operativa 11 - Cundinamarca-Amazonas,Bogota,"Bogota, D.C",2007-09-01,,PRECIPITACION,PTPM_TT_M,Precipitación total mensual,Mensual,1988-03-01,79.8,50,,900,31.146465,chirps-v2.0.1988.03.tif
80403,21200200,HATO EL  [21200200],4.383333333,-74.18333333,3150,Pluviométrica,EMPRESA DE ACUEDUCTO Y ALCANTARILLADO DE BOGOTA E.S.P,Area Operativa 11 - Cundinamarca-Amazonas,Bogota,"Bogota, D.C",1928-06-15,,PRECIPITACION,PTPM_TT_M,Precipitación total mensual,Mensual,1988-03-01,13.0,50,,900,28.963789,chirps-v2.0.1988.03.tif
81818,21205710,JARDIN BOTANICO  - AUT [21205710],4.669333333,-74.10266667,2552,Climática Principal,INSTITUTO DE HIDROLOGIA METEOROLOGIA Y ESTUDIOS AMBIENTALES,Area Operativa 11 - Cundinamarca-Amazonas,Bogota,"Bogota, D.C",1974-09-15,,PRECIPITACION,PTPM_TT_M,Precipitación total mensual,Mensual,1988-03-01,9.0,50,,900,19.517654,chirps-v2.0.1988.03.tif
84002,21205230,OBS MET NACIONAL [21205230],4.633333333,-74.1,2556,Climática Principal,INSTITUTO DE HIDROLOGIA METEOROLOGIA Y ESTUDIOS AMBIENTALES,Area Operativa 11 - Cundinamarca-Amazonas,Bogota,"Bogota, D.C",1941-03-15,1993-11-15 00:00:00,PRECIPITACION,PTPM_TT_M,Precipitación total mensual,Mensual,1988-03-01,38.9,50,,900,25.555025,chirps-v2.0.1988.03.tif
84616,21201560,PICOTA LA  [21201560],4.566666667,-74.13333333,2580,Pluviográfica,CORPORACION AUTONOMA REGIONAL DE CUNDINAMARCA,Area Operativa 11 - Cundinamarca-Amazonas,Bogota,"Bogota, D.C",1980-06-15,,PRECIPITACION,PTPM_TT_M,Precipitación total mensual,Mensual,1988-03-01,28.1,50,,900,29.319025,chirps-v2.0.1988.03.tif
86043,21200340,REGADERA 2 LA  [21200340],4.4,-74.15,3056,Pluviométrica,EMPRESA DE ACUEDUCTO Y ALCANTARILLADO DE BOGOTA E.S.P,Area Operativa 11 - Cundinamarca-Amazonas,Bogota,"Bogota, D.C",1948-01-15,,PRECIPITACION,PTPM_TT_M,Precipitación total mensual,Mensual,1988-03-01,17.9,50,,900,28.43777,chirps-v2.0.1988.03.tif
86474,21201960,SALITRE CASA BOMBA  [21201960],4.666666667,-74.06666667,2580,Pluviográfica,EMPRESA DE ACUEDUCTO Y ALCANTARILLADO DE BOGOTA E.S.P,Area Operativa 11 - Cundinamarca-Amazonas,Bogota,"Bogota, D.C",1975-01-15,,PRECIPITACION,PTPM_TT_M,Precipitación total mensual,Mensual,1988-03-01,35.8,50,,900,24.856773,chirps-v2.0.1988.03.tif
88480,21201240,SANTA MARIA DE USME [21201240],4.481305556,-74.12627778,2800,Pluviométrica,INSTITUTO DE HIDROLOGIA METEOROLOGIA Y ESTUDIOS AMBIENTALES,Area Operativa 11 - Cundinamarca-Amazonas,Bogota,"Bogota, D.C",1977-12-15,,PRECIPITACION,PTPM_TT_M,Precipitación total mensual,Mensual,1988-03-01,13.3,50,,900,24.3955,chirps-v2.0.1988.03.tif
89067,21201600,SEDE IDEAM KRA 10 [21201600],4.607111111,-74.07288889,2685,Pluviográfica,INSTITUTO DE HIDROLOGIA METEOROLOGIA Y ESTUDIOS AMBIENTALES,Area Operativa 11 - Cundinamarca-Amazonas,Bogota,"Bogota, D.C",1986-09-15,2019-05-03 14:58:00,PRECIPITACION,PTPM_TT_M,Precipitación total mensual,Mensual,1988-03-01,29.7,50,,900,27.149683,chirps-v2.0.1988.03.tif
90073,21200520,STA LUCIA  [21200520],4.566666667,-74.11666667,2630,Pluviométrica,EMPRESA DE ACUEDUCTO Y ALCANTARILLADO DE BOGOTA E.S.P,Area Operativa 11 - Cundinamarca-Amazonas,Bogota,"Bogota, D.C",1956-07-15,,PRECIPITACION,PTPM_TT_M,Precipitación total mensual,Mensual,1988-03-01,17.4,50,,900,29.319025,chirps-v2.0.1988.03.tif
90716,21200770,TORCA  [21200770],4.783333333,-74.03333333,2579,Pluviométrica,CORPORACION AUTONOMA REGIONAL DE CUNDINAMARCA,Area Operativa 11 - Cundinamarca-Amazonas,Bogota,"Bogota, D.C",1960-02-15,,PRECIPITACION,PTPM_TT_M,Precipitación total mensual,Mensual,1988-03-01,83.7,50,,900,33.102867,chirps-v2.0.1988.03.tif
91344,21206190,UNIV PEDAGOGICA [21206190],4.666666667,-74.06666667,2570,Climática Ordinaria,INSTITUTO DE HIDROLOGIA METEOROLOGIA Y ESTUDIOS AMBIENTALES,Area Operativa 11 - Cundinamarca-Amazonas,Bogota,"Bogota, D.C",1986-11-15,2008-12-10 00:00:00,PRECIPITACION,PTPM_TT_M,Precipitación total mensual,Mensual,1988-03-01,39.7,4,,900,24.856773,chirps-v2.0.1988.03.tif
91472,21205012,UNIVERSIDAD NACIONAL  - AUT [21205012],4.63723,-74.08892,2556,Climática Principal,INSTITUTO DE HIDROLOGIA METEOROLOGIA Y ESTUDIOS AMBIENTALES,Area Operativa 11 - Cundinamarca-Amazonas,Bogota,"Bogota, D.C",2004-08-19,,PRECIPITACION,PTPM_TT_M,Precipitación total mensual,Mensual,1988-03-01,26.5,50,,900,27.149683,chirps-v2.0.1988.03.tif
92037,21201110,USAQUEN  [21201110],4.683333333,-74.01666667,2647,Pluviométrica,CORPORACION AUTONOMA REGIONAL DE CUNDINAMARCA,Area Operativa 11 - Cundinamarca-Amazonas,Bogota,"Bogota, D.C",1955-06-15,,PRECIPITACION,PTPM_TT_M,Precipitación total mensual,Mensual,1988-03-01,51.0,50,,900,32.97576,chirps-v2.0.1988.03.tif
93428,21200240,VERJON EL  [21200240],4.583333333,-74.01666667,3250,Pluviométrica,EMPRESA DE ACUEDUCTO Y ALCANTARILLADO DE BOGOTA E.S.P,Area Operativa 11 - Cundinamarca-Amazonas,Bogota,"Bogota, D.C",1946-02-15,,PRECIPITACION,PTPM_TT_M,Precipitación total mensual,Mensual,1988-03-01,61.6,50,,900,30.055481,chirps-v2.0.1988.03.tif
94589,21205240,VITELMA  [21205240],4.566666667,-74.06666667,2682,Climática Ordinaria,EMPRESA DE ACUEDUCTO Y ALCANTARILLADO DE BOGOTA E.S.P,Area Operativa 11 - Cundinamarca-Amazonas,Bogota,"Bogota, D.C",1941-05-15,,PRECIPITACION,PTPM_TT_M,Precipitación total mensual,Mensual,1988-03-01,46.1,50,,900,31.146465,chirps-v2.0.1988.03.tif
95449,35030020,MONFORT [35030020],4.310083333,-73.64802778,1100,Pluviométrica,INSTITUTO DE HIDROLOGIA METEOROLOGIA Y ESTUDIOS AMBIENTALES,Area Operativa 03 - Meta-Guaviare-Guainía,Meta,El Calvario,1968-08-15,,PRECIPITACION,PTPM_TT_M,Precipitación total mensual,Mensual,1988-03-01,133.0,50,,1200,52.88382,chirps-v2.0.1988.03.tif
96180,21185040,AEROPUERTO SANTIAGO VILA [21185040],4.275444444,-74.798,305,Climática Principal,INSTITUTO DE HIDROLOGIA METEOROLOGIA Y ESTUDIOS AMBIENTALES,Area Operativa 10 - Tolima,Tolima,Flandes,1951-01-15,,PRECIPITACION,PTPM_TT_M,Precipitación total mensual,Mensual,1988-03-01,5.6,50,,1200,21.691048,chirps-v2.0.1988.03.tif
96643,21250610,ALSACIA [21250610],4.85,-74.78333333,310,Pluviométrica,INSTITUTO DE HIDROLOGIA METEOROLOGIA Y ESTUDIOS AMBIENTALES,Area Operativa 10 - Tolima,Tolima,Ambalema,1983-07-15,2002-02-15 00:00:00,PRECIPITACION,PTPM_TT_M,Precipitación total mensual,Mensual,1988-03-01,12.5,50,,900,41.296074,chirps-v2.0.1988.03.tif
97180,21250590,BOCATOMA C CENTRAL [21250590],4.783333333,-74.78333333,310,Pluviométrica,INSTITUTO DE HIDROLOGIA METEOROLOGIA Y ESTUDIOS AMBIENTALES,Area Operativa 10 - Tolima,Tolima,Ambalema,1983-07-15,2002-02-15 00:00:00,PRECIPITACION,PTPM_TT_M,Precipitación total mensual,Mensual,1988-03-01,20.0,50,,900,23.9789,chirps-v2.0.1988.03.tif
97430,21250540,BOCATOMA C NORTE [21250540],4.783333333,-74.8,340,Pluviométrica,INSTITUTO DE HIDROLOGIA METEOROLOGIA Y ESTUDIOS AMBIENTALES,Area Operativa 10 - Tolima,Tolima,Ambalema,1983-07-15,2002-02-15 00:00:00,PRECIPITACION,PTPM_TT_M,Precipitación total mensual,Mensual,1988-03-01,14.0,50,,900,33.561836,chirps-v2.0.1988.03.tif
97661,21250580,BOQUERON [21250580],4.8,-74.83333333,405,Pluviométrica,INSTITUTO DE HIDROLOGIA METEOROLOGIA Y ESTUDIOS AMBIENTALES,Area Operativa 10 - Tolima,Tolima,Ambalema,1983-07-15,2002-02-15 00:00:00,PRECIPITACION,PTPM_TT_M,Precipitación total mensual,Mensual,1988-03-01,2.4,50,,900,38.038696,chirps-v2.0.1988.03.tif
98073,21250430,CAMPAMENTO AMBALEM [21250430],4.783333333,-74.76666667,241,Pluviométrica,INSTITUTO DE HIDROLOGIA METEOROLOGIA Y ESTUDIOS AMBIENTALES,Area Operativa 10 - Tolima,Tolima,Ambalema,1968-07-15,2002-02-15 00:00:00,PRECIPITACION,PTPM_TT_M,Precipitación total mensual,Mensual,1988-03-01,8.0,50,,900,23.9789,chirps-v2.0.1988.03.tif
98541,21170020,DOS AGUAS LAS [21170020],4.258277778,-74.78361111,3394,Pluviométrica,INSTITUTO DE HIDROLOGIA METEOROLOGIA Y ESTUDIOS AMBIENTALES,Area Operativa 10 - Tolima,Tolima,Suárez,1951-01-15,,PRECIPITACION,PTPM_TT_M,Precipitación total mensual,Mensual,1988-03-01,9.3,50,,1200,21.691048,chirps-v2.0.1988.03.tif
99165,23025020,ESPERANZA LA [23025020],5.262638889,-74.72913889,208,Climática Ordinaria,INSTITUTO DE HIDROLOGIA METEOROLOGIA Y ESTUDIOS AMBIENTALES,Area Operativa 10 - Tolima,Tolima,Honda,1970-10-15,2016-01-06 00:00:00,PRECIPITACION,PTPM_TT_M,Precipitación total mensual,Mensual,1988-03-01,7.7,50,,900,71.17469,chirps-v2.0.1988.03.tif
99535,21250570,IGUACITOS [21250570],4.85,-74.85,375,Pluviométrica,INSTITUTO DE HIDROLOGIA METEOROLOGIA Y ESTUDIOS AMBIENTALES,Area Operativa 10 - Tolima,Tolima,Lérida,1983-07-15,2002-02-15 00:00:00,PRECIPITACION,PTPM_TT_M,Precipitación total mensual,Mensual,1988-03-01,11.8,50,,900,48.662315,chirps-v2.0.1988.03.tif
99724,23010140,MESA LA  [23010140],5.183333333,-74.88333333,1200,Pluviométrica,FEDERACION NACIONAL DE CAFETEROS,Area Operativa 10 - Tolima,Tolima,Mariquita,1991-01-15,,PRECIPITACION,PTPM_TT_M,Precipitación total mensual,Mensual,1988-03-01,80.0,50,,900,97.211655,chirps-v2.0.1988.03.tif
99977,21190300,SALERO EL [21190300],4.234527778,-74.60663889,650,Pluviométrica,INSTITUTO DE HIDROLOGIA METEOROLOGIA Y ESTUDIOS AMBIENTALES,Area Operativa 10 - Tolima,Tolima,Melgar,1971-11-15,2014-08-28 00:00:00,PRECIPITACION,PTPM_TT_M,Precipitación total mensual,Mensual,1988-03-01,7.0,50,,900,27.567572,chirps-v2.0.1988.03.tif
100471,21255080,SALTO EL [21255080],4.78375,-74.76794444,1139,Climática Principal,INSTITUTO DE HIDROLOGIA METEOROLOGIA Y ESTUDIOS AMBIENTALES,Area Operativa 10 - Tolima,Tolima,Ambalema,1968-11-15,,PRECIPITACION,PTPM_TT_M,Precipitación total mensual,Mensual,1988-03-01,16.4,50,,900,23.9789,chirps-v2.0.1988.03.tif
100841,23060260,CHILAGUA FINCA [23060260],5.064638889,-74.38202778,1500,Pluviométrica,INSTITUTO DE HIDROLOGIA METEOROLOGIA Y ESTUDIOS AMBIENTALES,Area Operativa 11 - Cundinamarca-Amazonas,Cundinamarca,Nocaima,1987-12-15,,PRECIPITACION,PTPM_TT_M,Precipitación total mensual,Mensual,1988-03-01,54.6,50,,900,59.130733,chirps-v2.0.1988.03.tif
101510,35035040,CHINGAZA  [35035040],4.483333333,-73.9,2999,Climática Ordinaria,EMPRESA DE ACUEDUCTO Y ALCANTARILLADO DE BOGOTA E.S.P,Area Operativa 11 - Cundinamarca-Amazonas,Cundinamarca,Fómeque,1968-01-15,,PRECIPITACION,PTPM_TT_M,Precipitación total mensual,Mensual,1988-03-01,60.4,50,,900,35.15175,chirps-v2.0.1988.03.tif
102021,35020050,CHIPAQUE  [35020050],4.45,-74.05,2850,Pluviográfica,EMPRESA DE ACUEDUCTO Y ALCANTARILLADO DE BOGOTA E.S.P,Area Operativa 11 - Cundinamarca-Amazonas,Cundinamarca,Chipaque,1956-01-15,,PRECIPITACION,PTPM_TT_M,Precipitación total mensual,Mensual,1988-03-01,41.1,50,,900,23.25778,chirps-v2.0.1988.03.tif
102525,35020240,CHOACHI  [35020240],4.533333333,-73.93333333,1950,Pluviográfica,EMPRESA DE ACUEDUCTO Y ALCANTARILLADO DE BOGOTA E.S.P,Area Operativa 11 - Cundinamarca-Amazonas,Cundinamarca,Choachí,1947-08-15,,PRECIPITACION,PTPM_TT_M,Precipitación total mensual,Mensual,1988-03-01,30.3,50,,900,38.10964,chirps-v2.0.1988.03.tif
102878,35020280,CHOACHI [35020280],4.522916667,-73.92658333,1950,Pluviométrica,INSTITUTO DE HIDROLOGIA METEOROLOGIA Y ESTUDIOS AMBIENTALES,Area Operativa 11 - Cundinamarca-Amazonas,Cundinamarca,Choachí,1981-11-15,,PRECIPITACION,PTPM_TT_M,Precipitación total mensual,Mensual,1988-03-01,15.0,50,,900,38.10964,chirps-v2.0.1988.03.tif
103743,35030140,CHUZA MONTERREDO  [35030140],4.616666667,-73.71666667,3100,Pluviométrica,EMPRESA DE ACUEDUCTO Y ALCANTARILLADO DE BOGOTA E.S.P,Area Operativa 11 - Cundinamarca-Amazonas,Cundinamarca,Fómeque,1966-11-15,,PRECIPITACION,PTPM_TT_M,Precipitación total mensual,Mensual,1988-03-01,49.7,50,,900,36.162933,chirps-v2.0.1988.03.tif
104010,35060210,CLARAVAL AUT [35060210],4.65025,-73.64144444,2100,Climática Principal,INSTITUTO DE HIDROLOGIA METEOROLOGIA Y ESTUDIOS AMBIENTALES,Area Operativa 11 - Cundinamarca-Amazonas,Cundinamarca,Junín,1972-02-15,,PRECIPITACION,PTPM_TT_M,Precipitación total mensual,Mensual,1988-03-01,49.2,50,,900,46.2732,chirps-v2.0.1988.03.tif
104655,21200960,CONSUELO EL  [21200960],4.983333333,-73.78333333,2960,Pluviográfica,CORPORACION AUTONOMA REGIONAL DE CUNDINAMARCA,Area Operativa 11 - Cundinamarca-Amazonas,Cundinamarca,Sesquilé,1967-03-15,,PRECIPITACION,PTPM_TT_M,Precipitación total mensual,Mensual,1988-03-01,31.0,50,,900,25.658623,chirps-v2.0.1988.03.tif
104853,21201070,CORAZON EL [21201070],4.865361111,-74.28941667,2845,Pluviométrica,INSTITUTO DE HIDROLOGIA METEOROLOGIA Y ESTUDIOS AMBIENTALES,Area Operativa 11 - Cundinamarca-Amazonas,Cundinamarca,Facatativá,1974-07-15,,PRECIPITACION,PTPM_TT_M,Precipitación total mensual,Mensual,1988-03-01,135.7,50,,900,43.276478,chirps-v2.0.1988.03.tif
105486,35030120,CUCHILLA GOLILLAS  [35030120],4.566666667,-73.73333333,3350,Pluviométrica,EMPRESA DE ACUEDUCTO Y ALCANTARILLADO DE BOGOTA E.S.P,Area Operativa 11 - Cundinamarca-Amazonas,Cundinamarca,Fómeque,1969-08-15,,PRECIPITACION,PTPM_TT_M,Precipitación total mensual,Mensual,1988-03-01,40.0,4,,900,36.57168,chirps-v2.0.1988.03.tif
106047,24010140,CUCUNUBA [24010140],5.21957,-73.78229,2818,Pluviométrica,INSTITUTO DE HIDROLOGIA METEOROLOGIA Y ESTUDIOS AMBIENTALES,Area Operativa 11 - Cundinamarca-Amazonas,Cundinamarca,Cucunubá,1958-01-15,2019-11-13 11:27:00,PRECIPITACION,PTPM_TT_M,Precipitación total mensual,Mensual,1988-03-01,11.5,50,,900,16.472998,chirps-v2.0.1988.03.tif
106434,24011080,CUCUNUBA1 [24011080],5.25,-73.77,3,Pluviométrica,INSTITUTO DE HIDROLOGIA METEOROLOGIA Y ESTUDIOS AMBIENTALES,Area Operativa 11 - Cundinamarca-Amazonas,Cundinamarca,Cucunubá,1987-05-15,,PRECIPITACION,PTPM_TT_M,Precipitación total mensual,Mensual,1988-03-01,15.3,50,,900,26.122711,chirps-v2.0.1988.03.tif
106852,21201830,DARIO VALENCIA  [21201830],4.6,-74.45,790,Pluviométrica,CORPORACION AUTONOMA REGIONAL DE CUNDINAMARCA,Area Operativa 11 - Cundinamarca-Amazonas,Cundinamarca,El Colegio,1987-11-15,,PRECIPITACION,PTPM_TT_M,Precipitación total mensual,Mensual,1988-03-01,52.9,50,,900,40.227604,chirps-v2.0.1988.03.tif
107121,35040010,EL RETIRO [35040010],4.338722222,-73.54652778,870,Pluviométrica,INSTITUTO DE HIDROLOGIA METEOROLOGIA Y ESTUDIOS AMBIENTALES,Area Operativa 03 - Meta-Guaviare-Guainía,Cundinamarca,Medina,1968-08-15,,PRECIPITACION,PTPM_TT_M,Precipitación total mensual,Mensual,1988-03-01,15.0,50,,1200,53.383823,chirps-v2.0.1988.03.tif
107790,24010390,EL TRIANGULO  - AUT  [24010390],5.305305556,-73.61930556,2879,Pluviográfica,CORPORACION AUTONOMA REGIONAL DE CUNDINAMARCA,Area Operativa 11 - Cundinamarca-Amazonas,Cundinamarca,Lenguazaque,1963-01-15,,PRECIPITACION,PTPM_TT_M,Precipitación total mensual,Mensual,1988-03-01,17.0,50,,900,21.550436,chirps-v2.0.1988.03.tif
108251,21201380,ENCANTO EL  [21201380],5.166666667,-73.88333333,3150,Pluviográfica,CORPORACION AUTONOMA REGIONAL DE CUNDINAMARCA,Area Operativa 11 - Cundinamarca-Amazonas,Cundinamarca,Tausa,1959-08-15,,PRECIPITACION,PTPM_TT_M,Precipitación total mensual,Mensual,1988-03-01,67.0,50,,900,22.567892,chirps-v2.0.1988.03.tif
108308,21206410,ESC SAMPER MADRID  [21206410],4.516666667,-74.58333333,550,Climática Principal,CORPORACION AUTONOMA REGIONAL DE CUNDINAMARCA,Area Operativa 11 - Cundinamarca-Amazonas,Cundinamarca,Apulo,1987-03-15,,PRECIPITACION,PTPM_TT_M,Precipitación total mensual,Mensual,1988-03-01,38.8,50,,900,52.43239,chirps-v2.0.1988.03.tif
109410,23065070,ESC VOCACIONAL  [23065070],5.166666667,-74.2,1940,Climática Ordinaria,CORPORACION AUTONOMA REGIONAL DE CUNDINAMARCA,Area Operativa 11 - Cundinamarca-Amazonas,Cundinamarca,Pacho,1966-06-15,,PRECIPITACION,PTPM_TT_M,Precipitación total mensual,Mensual,1988-03-01,46.6,50,,900,50.81588,chirps-v2.0.1988.03.tif
109630,35060100,ESCUELA TENA [35060100],4.712694444,-73.52069444,1650,Pluviográfica,INSTITUTO DE HIDROLOGIA METEOROLOGIA Y ESTUDIOS AMBIENTALES,Area Operativa 11 - Cundinamarca-Amazonas,Cundinamarca,Gachalá,1972-08-15,,PRECIPITACION,PTPM_TT_M,Precipitación total mensual,Mensual,1988-03-01,53.3,50,,900,54.04038,chirps-v2.0.1988.03.tif
110211,21201140,ESPERANZA LA [21201140],4.802166667,-74.17997222,2555,Pluviométrica,INSTITUTO DE HIDROLOGIA METEOROLOGIA Y ESTUDIOS AMBIENTALES,Area Operativa 11 - Cundinamarca-Amazonas,Cundinamarca,Tenjo,1974-07-15,,PRECIPITACION,PTPM_TT_M,Precipitación total mensual,Mensual,1988-03-01,13.6,50,,900,30.851744,chirps-v2.0.1988.03.tif
110638,35070480,ESPERANZA LA [35070480],5.0100278,-73.539444444,1854,Pluviográfica,INSTITUTO DE HIDROLOGIA METEOROLOGIA Y ESTUDIOS AMBIENTALES,Area Operativa 06 - Boyacá-Casanare-Vichada,Cundinamarca,Manta,1982-08-15,,PRECIPITACION,PTPM_TT_M,Precipitación total mensual,Mensual,1988-03-01,24.7,50,,900,34.7219,chirps-v2.0.1988.03.tif
111693,23060320,FLORIDA LA  [23060320],5.083333333,-74.3,1400,Pluviométrica,FEDERACION NACIONAL DE CAFETEROS,Area Operativa 11 - Cundinamarca-Amazonas,Cundinamarca,Vergara,1988-01-15,,PRECIPITACION,PTPM_TT_M,Precipitación total mensual,Mensual,1988-03-01,66.0,50,,900,58.18756,chirps-v2.0.1988.03.tif
111976,21205670,FLORIDA LA AUT [21205670],4.770888889,-74.43763889,1915,Climática Principal,INSTITUTO DE HIDROLOGIA METEOROLOGIA Y ESTUDIOS AMBIENTALES,Area Operativa 11 - Cundinamarca-Amazonas,Cundinamarca,Anolaima,1970-11-15,,PRECIPITACION,PTPM_TT_M,Precipitación total mensual,Mensual,1988-03-01,71.1,4,,900,42.095417,chirps-v2.0.1988.03.tif
112454,35020290,FOMEQUE [35020290],4.486527778,-73.89041667,1900,Pluviométrica,INSTITUTO DE HIDROLOGIA METEOROLOGIA Y ESTUDIOS AMBIENTALES,Area Operativa 11 - Cundinamarca-Amazonas,Cundinamarca,Fómeque,1981-11-15,,PRECIPITACION,PTPM_TT_M,Precipitación total mensual,Mensual,1988-03-01,25.0,50,,900,39.26538,chirps-v2.0.1988.03.tif
113133,21201660,FUTE  [21201660],4.6,-74.28333333,2607,Pluviográfica,CORPORACION AUTONOMA REGIONAL DE CUNDINAMARCA,Area Operativa 11 - Cundinamarca-Amazonas,Cundinamarca,Soacha,1959-09-15,,PRECIPITACION,PTPM_TT_M,Precipitación total mensual,Mensual,1988-03-01,72.0,50,,900,37.10354,chirps-v2.0.1988.03.tif
113720,35060090,GACHALA [35060090],4.690527778,-73.52291667,1733,Pluviométrica,INSTITUTO DE HIDROLOGIA METEOROLOGIA Y ESTUDIOS AMBIENTALES,Area Operativa 11 - Cundinamarca-Amazonas,Cundinamarca,Gachalá,1962-04-15,,PRECIPITACION,PTPM_TT_M,Precipitación total mensual,Mensual,1988-03-01,61.0,50,,900,53.730675,chirps-v2.0.1988.03.tif
114555,35065010,GACHETA [35065010],4.830388889,-73.64647222,1752,Climática Ordinaria,INSTITUTO DE HIDROLOGIA METEOROLOGIA Y ESTUDIOS AMBIENTALES,Area Operativa 11 - Cundinamarca-Amazonas,Cundinamarca,Gachetá,1972-09-15,,PRECIPITACION,PTPM_TT_M,Precipitación total mensual,Mensual,1988-03-01,29.8,50,,900,40.01844,chirps-v2.0.1988.03.tif
115121,35060240,GAMA [35060240],4.764277778,-73.60991667,2210,Pluviométrica,INSTITUTO DE HIDROLOGIA METEOROLOGIA Y ESTUDIOS AMBIENTALES,Area Operativa 11 - Cundinamarca-Amazonas,Cundinamarca,Gama,1972-08-15,,PRECIPITACION,PTPM_TT_M,Precipitación total mensual,Mensual,1988-03-01,35.0,50,,900,39.24967,chirps-v2.0.1988.03.tif
115793,21200830,GRANJAS LAS  [21200830],4.466666667,-74.43333333,1400,Pluviométrica,FEDERACION NACIONAL DE CAFETEROS,Area Operativa 11 - Cundinamarca-Amazonas,Cundinamarca,El Colegio,1961-04-15,,PRECIPITACION,PTPM_TT_M,Precipitación total mensual,Mensual,1988-03-01,33.0,50,,900,33.68097,chirps-v2.0.1988.03.tif
116531,21201180,GUANQUICA [21201180],5.184277778,-73.941111111,3,Pluviométrica,INSTITUTO DE HIDROLOGIA METEOROLOGIA Y ESTUDIOS AMBIENTALES,Area Operativa 11 - Cundinamarca-Amazonas,Cundinamarca,Tausa,1954-12-15,,PRECIPITACION,PTPM_TT_M,Precipitación total mensual,Mensual,1988-03-01,38.3,50,,900,25.302967,chirps-v2.0.1988.03.tif
117289,21200600,GUARANI EL PENON  [21200600],4.433333333,-74.3,2800,Pluviográfica,CORPORACION AUTONOMA REGIONAL DE CUNDINAMARCA,Area Operativa 11 - Cundinamarca-Amazonas,Cundinamarca,Sibaté,1959-09-15,,PRECIPITACION,PTPM_TT_M,Precipitación total mensual,Mensual,1988-03-01,21.6,4,,900,40.3409,chirps-v2.0.1988.03.tif
117717,21205700,GUASCA [21205700],4.879861111,-73.86811111,2750,Climática Ordinaria,INSTITUTO DE HIDROLOGIA METEOROLOGIA Y ESTUDIOS AMBIENTALES,Area Operativa 11 - Cundinamarca-Amazonas,Cundinamarca,Guasca,1974-07-15,,PRECIPITACION,PTPM_TT_M,Precipitación total mensual,Mensual,1988-03-01,37.4,50,,900,32.381023,chirps-v2.0.1988.03.tif
118154,35020300,GUTIERREZ [35020300],4.253916667,-74.00269444,2300,Climática Principal,INSTITUTO DE HIDROLOGIA METEOROLOGIA Y ESTUDIOS AMBIENTALES,Area Operativa 11 - Cundinamarca-Amazonas,Cundinamarca,Gutiérrez,1984-07-15,,PRECIPITACION,PTPM_TT_M,Precipitación total mensual,Mensual,1988-03-01,21.8,50,,900,36.534164,chirps-v2.0.1988.03.tif
118569,21205970,HACIENDA SANTA ANA [21205970],5.0905,-73.88125,2572,Climática Principal,INSTITUTO DE HIDROLOGIA METEOROLOGIA Y ESTUDIOS AMBIENTALES,Area Operativa 11 - Cundinamarca-Amazonas,Cundinamarca,Nemocón,1977-02-15,,PRECIPITACION,PTPM_TT_M,Precipitación total mensual,Mensual,1988-03-01,22.0,4,,900,30.462364,chirps-v2.0.1988.03.tif
118901,24010300,HATILLO EL  [24010300],5.166666667,-73.8,2885,Pluviométrica,CORPORACION AUTONOMA REGIONAL DE CUNDINAMARCA,Area Operativa 11 - Cundinamarca-Amazonas,Cundinamarca,Suesca,1960-08-15,,PRECIPITACION,PTPM_TT_M,Precipitación total mensual,Mensual,1988-03-01,19.0,50,,900,20.702503,chirps-v2.0.1988.03.tif
119069,24010520,HATO 1 EL  [24010520],5.283333333,-73.91666667,2985,Pluviométrica,CORPORACION AUTONOMA REGIONAL DE CUNDINAMARCA,Area Operativa 11 - Cundinamarca-Amazonas,Cundinamarca,Carmen De Carupa,1972-10-15,,PRECIPITACION,PTPM_TT_M,Precipitación total mensual,Mensual,1988-03-01,40.0,50,,900,27.247635,chirps-v2.0.1988.03.tif
119237,24010530,HATO 2 EL  [24010530],5.266666667,-73.91666667,2974,Pluviométrica,CORPORACION AUTONOMA REGIONAL DE CUNDINAMARCA,Area Operativa 11 - Cundinamarca-Amazonas,Cundinamarca,Carmen De Carupa,1972-10-15,,PRECIPITACION,PTPM_TT_M,Precipitación total mensual,Mensual,1988-03-01,19.0,50,,900,27.247635,chirps-v2.0.1988.03.tif
119405,24010540,HATO 3 EL  [24010540],5.25,-73.95,3398,Pluviométrica,CORPORACION AUTONOMA REGIONAL DE CUNDINAMARCA,Area Operativa 11 - Cundinamarca-Amazonas,Cundinamarca,Carmen De Carupa,1972-10-15,,PRECIPITACION,PTPM_TT_M,Precipitación total mensual,Mensual,1988-03-01,53.0,50,,900,30.120079,chirps-v2.0.1988.03.tif
119573,24010550,HATO 4 EL  [24010550],5.216666667,-73.95,3465,Pluviométrica,CORPORACION AUTONOMA REGIONAL DE CUNDINAMARCA,Area Operativa 11 - Cundinamarca-Amazonas,Cundinamarca,Carmen De Carupa,1972-10-15,,PRECIPITACION,PTPM_TT_M,Precipitación total mensual,Mensual,1988-03-01,34.0,50,,900,20.388132,chirps-v2.0.1988.03.tif
119741,24010560,HATO 5 EL  [24010560],5.216666667,-73.95,3360,Pluviométrica,CORPORACION AUTONOMA REGIONAL DE CUNDINAMARCA,Area Operativa 11 - Cundinamarca-Amazonas,Cundinamarca,Carmen De Carupa,1972-10-15,,PRECIPITACION,PTPM_TT_M,Precipitación total mensual,Mensual,1988-03-01,118.0,50,,900,20.388132,chirps-v2.0.1988.03.tif
119909,24010570,HATO 6 EL  [24010570],5.233333333,-73.93333333,3105,Pluviométrica,CORPORACION AUTONOMA REGIONAL DE CUNDINAMARCA,Area Operativa 11 - Cundinamarca-Amazonas,Cundinamarca,Carmen De Carupa,1972-10-15,,PRECIPITACION,PTPM_TT_M,Precipitación total mensual,Mensual,1988-03-01,96.0,50,,900,21.095684,chirps-v2.0.1988.03.tif
120077,24010580,HATO 7 EL  [24010580],5.233333333,-73.91666667,3271,Pluviométrica,CORPORACION AUTONOMA REGIONAL DE CUNDINAMARCA,Area Operativa 11 - Cundinamarca-Amazonas,Cundinamarca,Carmen De Carupa,1972-10-15,,PRECIPITACION,PTPM_TT_M,Precipitación total mensual,Mensual,1988-03-01,31.0,50,,900,21.095684,chirps-v2.0.1988.03.tif
120245,24010590,HATO 8 EL  [24010590],5.266666667,-73.9,2963,Pluviométrica,CORPORACION AUTONOMA REGIONAL DE CUNDINAMARCA,Area Operativa 11 - Cundinamarca-Amazonas,Cundinamarca,Carmen De Carupa,1972-10-15,,PRECIPITACION,PTPM_TT_M,Precipitación total mensual,Mensual,1988-03-01,35.0,50,,900,27.247635,chirps-v2.0.1988.03.tif
120605,24010350,HATO EL  [24010350],5.283333333,-73.9,2900,Pluviográfica,CORPORACION AUTONOMA REGIONAL DE CUNDINAMARCA,Area Operativa 11 - Cundinamarca-Amazonas,Cundinamarca,Carmen De Carupa,1962-10-15,,PRECIPITACION,PTPM_TT_M,Precipitación total mensual,Mensual,1988-03-01,32.4,50,,900,27.247635,chirps-v2.0.1988.03.tif
120755,21201210,HATO EL [21201210],4.866388889,-74.15386111,2575,Pluviométrica,INSTITUTO DE HIDROLOGIA METEOROLOGIA Y ESTUDIOS AMBIENTALES,Area Operativa 11 - Cundinamarca-Amazonas,Cundinamarca,Tenjo,1978-06-15,,PRECIPITACION,PTPM_TT_M,Precipitación total mensual,Mensual,1988-03-01,12.8,50,,900,32.164913,chirps-v2.0.1988.03.tif
121203,35070490,HATO GRANDE HACIENDA [35070490],4.959388889,-73.58436111,2346,Pluviométrica,INSTITUTO DE HIDROLOGIA METEOROLOGIA Y ESTUDIOS AMBIENTALES,Area Operativa 11 - Cundinamarca-Amazonas,Cundinamarca,Manta,1982-07-15,,PRECIPITACION,PTPM_TT_M,Precipitación total mensual,Mensual,1988-03-01,40.0,50,,900,30.091478,chirps-v2.0.1988.03.tif
121614,21202160,HIDROPARAISO [21202160],4.5745,-74.407388889,1685,Pluviométrica,INSTITUTO DE HIDROLOGIA METEOROLOGIA Y ESTUDIOS AMBIENTALES,Area Operativa 11 - Cundinamarca-Amazonas,Cundinamarca,El Colegio,1999-01-15,,PRECIPITACION,PTPM_TT_M,Precipitación total mensual,Mensual,1988-03-01,33.7,50,,900,39.495506,chirps-v2.0.1988.03.tif
121991,21206160,HIDROPARAISO [21206160],4.573166667,-74.40483333,1600,Climática Principal,INSTITUTO DE HIDROLOGIA METEOROLOGIA Y ESTUDIOS AMBIENTALES,Area Operativa 11 - Cundinamarca-Amazonas,Cundinamarca,El Colegio,1984-04-15,1998-12-15 00:00:00,PRECIPITACION,PTPM_TT_M,Precipitación total mensual,Mensual,1988-03-01,33.7,50,,900,39.495506,chirps-v2.0.1988.03.tif
122161,21201670,HOYO EL - ARRIBA  [21201670],5.15,-73.81666667,2780,Pluviográfica,CORPORACION AUTONOMA REGIONAL DE CUNDINAMARCA,Area Operativa 11 - Cundinamarca-Amazonas,Cundinamarca,Suesca,1985-12-15,,PRECIPITACION,PTPM_TT_M,Precipitación total mensual,Mensual,1988-03-01,43.6,50,,900,20.702503,chirps-v2.0.1988.03.tif
122575,21201410,ACANDY  [21201410],5.05,-73.88333333,2600,Pluviométrica,CORPORACION AUTONOMA REGIONAL DE CUNDINAMARCA,Area Operativa 11 - Cundinamarca-Amazonas,Cundinamarca,Nemocón,1977-10-15,,PRECIPITACION,PTPM_TT_M,Precipitación total mensual,Mensual,1988-03-01,83.0,50,,900,30.462364,chirps-v2.0.1988.03.tif
123346,21201590,ALCO  [21201590],4.9,-74.0,2590,Pluviográfica,CORPORACION AUTONOMA REGIONAL DE CUNDINAMARCA,Area Operativa 11 - Cundinamarca-Amazonas,Cundinamarca,Zipaquirá,1980-06-15,,PRECIPITACION,PTPM_TT_M,Precipitación total mensual,Mensual,1988-03-01,19.9,50,,900,30.188969,chirps-v2.0.1988.03.tif
123849,21201130,ALMAVIVA  [21201130],4.866666667,-74.01666667,2595,Pluviométrica,CORPORACION AUTONOMA REGIONAL DE CUNDINAMARCA,Area Operativa 11 - Cundinamarca-Amazonas,Cundinamarca,Chía,1973-04-15,,PRECIPITACION,PTPM_TT_M,Precipitación total mensual,Mensual,1988-03-01,15.5,50,,900,37.120987,chirps-v2.0.1988.03.tif
124032,21201680,ALTO DE AIRE  [21201680],5.216666667,-73.8,2900,Pluviográfica,CORPORACION AUTONOMA REGIONAL DE CUNDINAMARCA,Area Operativa 11 - Cundinamarca-Amazonas,Cundinamarca,Cucunubá,1986-09-15,,PRECIPITACION,PTPM_TT_M,Precipitación total mensual,Mensual,1988-03-01,67.4,50,,900,18.962206,chirps-v2.0.1988.03.tif
