,CodigoEstacion,NombreEstacion,Latitud,Longitud,Altitud,Categoria,Entidad,AreaOperativa,Departamento,Municipio,FechaInstalacion,FechaSuspension,IdParametro,Etiqueta,DescripcionSerie,Frecuencia,Fecha,Valor,Grado,Calificador,NivelAprobacion,SatValue,SatDesc
322,21201920,ALTO SAN MIGUEL [21201920],4.449666667,-74.29972222,2750,Pluviométrica,INSTITUTO DE HIDROLOGIA METEOROLOGIA Y ESTUDIOS AMBIENTALES,Area Operativa 11 - Cundinamarca-Amazonas,Cundinamarca,Sibaté,1993-05-15,,PRECIPITACION,PTPM_TT_M,Precipitación total mensual,Mensual,2003-12-01,8.2,50,,900,72.83832,chirps-v2.0.2003.12.tif
924,35060200,AMOLADERO EL [35060200],4.857972222,-73.74538889,2963,Pluviométrica,INSTITUTO DE HIDROLOGIA METEOROLOGIA Y ESTUDIOS AMBIENTALES,Area Operativa 11 - Cundinamarca-Amazonas,Cundinamarca,Guatavita,1972-04-15,,PRECIPITACION,PTPM_TT_M,Precipitación total mensual,Mensual,2003-12-01,58.7,50,,900,78.79008,chirps-v2.0.2003.12.tif
1328,21201790,ARGENTINA  [21201790],4.75,-74.51666667,1150,Pluviográfica,CORPORACION AUTONOMA REGIONAL DE CUNDINAMARCA,Area Operativa 10 - Tolima,Cundinamarca,Quipile,1989-04-15,,PRECIPITACION,PTPM_TT_M,Precipitación total mensual,Mensual,2003-12-01,0.0,50,,900,97.61365,chirps-v2.0.2003.12.tif
1705,21230090,ARRANCAPLUMAS [21230090],5.20275,-74.72927778,235,Pluviométrica,INSTITUTO DE HIDROLOGIA METEOROLOGIA Y ESTUDIOS AMBIENTALES,Area Operativa 10 - Tolima,Cundinamarca,Guaduas,1980-04-15,,PRECIPITACION,PTPM_TT_M,Precipitación total mensual,Mensual,2003-12-01,71.9,50,,1200,111.63041,chirps-v2.0.2003.12.tif
2826,21190460,BATAN [21190460],4.35,-74.4,2240,Pluviométrica,INSTITUTO DE HIDROLOGIA METEOROLOGIA Y ESTUDIOS AMBIENTALES,Area Operativa 11 - Cundinamarca-Amazonas,Cundinamarca,Pasca,1997-07-15,,PRECIPITACION,PTPM_TT_M,Precipitación total mensual,Mensual,2003-12-01,56.4,50,,900,83.57893,chirps-v2.0.2003.12.tif
3256,21230120,BELLEZA LA [21230120],4.985388889,-74.58111111,1200,Pluviométrica,INSTITUTO DE HIDROLOGIA METEOROLOGIA Y ESTUDIOS AMBIENTALES,Area Operativa 11 - Cundinamarca-Amazonas,Cundinamarca,Chaguaní,1986-12-15,,PRECIPITACION,PTPM_TT_M,Precipitación total mensual,Mensual,2003-12-01,7.2,50,,900,95.12301,chirps-v2.0.2003.12.tif
4932,21235010,JERUSALEN [21235010],4.561805556,-74.70238889,297,Climática Ordinaria,INSTITUTO DE HIDROLOGIA METEOROLOGIA Y ESTUDIOS AMBIENTALES,Area Operativa 10 - Tolima,Cundinamarca,Jerusalén,1974-11-15,,PRECIPITACION,PTPM_TT_M,Precipitación total mensual,Mensual,2003-12-01,37.3,50,,1200,61.246902,chirps-v2.0.2003.12.tif
5661,35060050,JUNIN [35060050],4.792222222,-73.66872222,2323,Pluviométrica,INSTITUTO DE HIDROLOGIA METEOROLOGIA Y ESTUDIOS AMBIENTALES,Area Operativa 11 - Cundinamarca-Amazonas,Cundinamarca,Junín,1962-05-15,,PRECIPITACION,PTPM_TT_M,Precipitación total mensual,Mensual,2003-12-01,80.0,50,,900,85.56168,chirps-v2.0.2003.12.tif
7044,21201840,LAG DEL INDIO  [21201840],4.4,-74.46666667,2050,Pluviométrica,CORPORACION AUTONOMA REGIONAL DE CUNDINAMARCA,Area Operativa 10 - Tolima,Cundinamarca,Viotá,1989-04-15,,PRECIPITACION,PTPM_TT_M,Precipitación total mensual,Mensual,2003-12-01,0.0,50,,900,81.87737,chirps-v2.0.2003.12.tif
7589,35030160,LAGUNA CHINGAZA  [35030160],4.533333333,-73.75,3250,Pluviométrica,EMPRESA DE ACUEDUCTO Y ALCANTARILLADO DE BOGOTA E.S.P,Area Operativa 11 - Cundinamarca-Amazonas,Cundinamarca,Fómeque,1966-03-15,,PRECIPITACION,PTPM_TT_M,Precipitación total mensual,Mensual,2003-12-01,98.8,50,,900,68.062645,chirps-v2.0.2003.12.tif
7882,35020380,LAGUNA MARRANOS  [35020380],4.65,-73.83333333,3090,Pluviométrica,EMPRESA DE ACUEDUCTO Y ALCANTARILLADO DE BOGOTA E.S.P,Area Operativa 11 - Cundinamarca-Amazonas,Cundinamarca,La Calera,1979-08-15,,PRECIPITACION,PTPM_TT_M,Precipitación total mensual,Mensual,2003-12-01,81.2,50,,900,77.96844,chirps-v2.0.2003.12.tif
8130,35030180,LAGUNA SECA  [35030180],4.666666667,-73.76666667,3620,Pluviométrica,EMPRESA DE ACUEDUCTO Y ALCANTARILLADO DE BOGOTA E.S.P,Area Operativa 11 - Cundinamarca-Amazonas,Cundinamarca,Fómeque,1987-04-15,,PRECIPITACION,PTPM_TT_M,Precipitación total mensual,Mensual,2003-12-01,59.0,50,,900,63.10063,chirps-v2.0.2003.12.tif
8428,21201190,LAGUNITAS [21201190],5.214527778,-73.90725,3100,Pluviométrica,INSTITUTO DE HIDROLOGIA METEOROLOGIA Y ESTUDIOS AMBIENTALES,Area Operativa 11 - Cundinamarca-Amazonas,Cundinamarca,Tausa,1985-03-15,,PRECIPITACION,PTPM_TT_M,Precipitación total mensual,Mensual,2003-12-01,38.2,50,,900,44.764896,chirps-v2.0.2003.12.tif
8866,35030080,LAS CASAS [35030080],4.441166667,-73.93638889,2100,Pluviográfica,INSTITUTO DE HIDROLOGIA METEOROLOGIA Y ESTUDIOS AMBIENTALES,Area Operativa 11 - Cundinamarca-Amazonas,Cundinamarca,Cáqueza,1986-05-15,,PRECIPITACION,PTPM_TT_M,Precipitación total mensual,Mensual,2003-12-01,26.5,50,,900,82.798294,chirps-v2.0.2003.12.tif
9439,24010070,LETICIA [24010070],5.303194444,-73.70975,2650,Pluviométrica,INSTITUTO DE HIDROLOGIA METEOROLOGIA Y ESTUDIOS AMBIENTALES,Area Operativa 11 - Cundinamarca-Amazonas,Cundinamarca,Lenguazaque,1974-02-15,,PRECIPITACION,PTPM_TT_M,Precipitación total mensual,Mensual,2003-12-01,86.5,50,,900,48.25127,chirps-v2.0.2003.12.tif
9893,35025050,LLANO LARGO [35025050],4.482833333,-74.03027778,2980,Climática Ordinaria,INSTITUTO DE HIDROLOGIA METEOROLOGIA Y ESTUDIOS AMBIENTALES,Area Operativa 11 - Cundinamarca-Amazonas,Cundinamarca,Ubaque,1986-04-15,,PRECIPITACION,PTPM_TT_M,Precipitación total mensual,Mensual,2003-12-01,61.3,50,,900,75.01777,chirps-v2.0.2003.12.tif
10435,21201050,LOURDES [21201050],4.982888889,-73.86466667,2750,Pluviométrica,INSTITUTO DE HIDROLOGIA METEOROLOGIA Y ESTUDIOS AMBIENTALES,Area Operativa 11 - Cundinamarca-Amazonas,Cundinamarca,Gachancipá,1985-03-15,,PRECIPITACION,PTPM_TT_M,Precipitación total mensual,Mensual,2003-12-01,50.7,50,,900,61.00943,chirps-v2.0.2003.12.tif
12190,21205660,MERCEDES - AUT [21205660],4.5791,-74.52318,765,Climática Principal,INSTITUTO DE HIDROLOGIA METEOROLOGIA Y ESTUDIOS AMBIENTALES,Area Operativa 11 - Cundinamarca-Amazonas,Cundinamarca,Anapoima,1970-09-15,,PRECIPITACION,PTPM_TT_M,Precipitación total mensual,Mensual,2003-12-01,40.7,4,,900,78.65512,chirps-v2.0.2003.12.tif
12548,21190470,MESA LA HDA  [21190470],4.3,-74.23333333,3470,Pluviométrica,CORPORACION AUTONOMA REGIONAL DE CUNDINAMARCA,Area Operativa 11 - Cundinamarca-Amazonas,Cundinamarca,Pasca,1997-07-15,,PRECIPITACION,PTPM_TT_M,Precipitación total mensual,Mensual,2003-12-01,49.4,50,,900,77.37368,chirps-v2.0.2003.12.tif
14308,35020010,MONTERREDONDO [35020010],4.2483,-73.8187,1467,Pluviométrica,INSTITUTO DE HIDROLOGIA METEOROLOGIA Y ESTUDIOS AMBIENTALES,Area Operativa 03 - Meta-Guaviare-Guainía,Cundinamarca,Guayabetal,1951-07-15,,PRECIPITACION,PTPM_TT_M,Precipitación total mensual,Mensual,2003-12-01,55.0,4,,1200,119.49863,chirps-v2.0.2003.12.tif
15237,35020390,MUNDONUEVO  [35020390],4.683333333,-73.86666667,2400,Pluviométrica,EMPRESA DE ACUEDUCTO Y ALCANTARILLADO DE BOGOTA E.S.P,Area Operativa 11 - Cundinamarca-Amazonas,Cundinamarca,La Calera,1971-01-15,,PRECIPITACION,PTPM_TT_M,Precipitación total mensual,Mensual,2003-12-01,41.9,50,,900,76.94039,chirps-v2.0.2003.12.tif
15598,21230110,NARINO RADIO [21230110],4.387805556,-74.838166667,262,Pluviométrica,INSTITUTO DE HIDROLOGIA METEOROLOGIA Y ESTUDIOS AMBIENTALES,Area Operativa 10 - Tolima,Cundinamarca,Nariño,1980-01-15,,PRECIPITACION,PTPM_TT_M,Precipitación total mensual,Mensual,2003-12-01,63.0,50,,900,54.736473,chirps-v2.0.2003.12.tif
16174,21230060,NARINO [21230060],4.398611111,-74.82555556,289,Pluviométrica,INSTITUTO DE HIDROLOGIA METEOROLOGIA Y ESTUDIOS AMBIENTALES,Area Operativa 10 - Tolima,Cundinamarca,Nariño,1974-11-15,,PRECIPITACION,PTPM_TT_M,Precipitación total mensual,Mensual,2003-12-01,54.1,50,,1200,54.736473,chirps-v2.0.2003.12.tif
16775,21190210,NILO [21190210],4.305888889,-74.64866667,322,Pluviométrica,INSTITUTO DE HIDROLOGIA METEOROLOGIA Y ESTUDIOS AMBIENTALES,Area Operativa 10 - Tolima,Cundinamarca,Nilo,1971-11-15,,PRECIPITACION,PTPM_TT_M,Precipitación total mensual,Mensual,2003-12-01,36.7,50,,1200,77.20407,chirps-v2.0.2003.12.tif
17738,21200160,PANONIA [21200160],5.057972222,-73.73433333,2800,Pluviométrica,INSTITUTO DE HIDROLOGIA METEOROLOGIA Y ESTUDIOS AMBIENTALES,Area Operativa 11 - Cundinamarca-Amazonas,Cundinamarca,Chocontá,1985-03-15,,PRECIPITACION,PTPM_TT_M,Precipitación total mensual,Mensual,2003-12-01,42.4,50,,900,36.881718,chirps-v2.0.2003.12.tif
18680,21201060,PANTANO REDONDO 1 [21201060],5.04325,-74.03338889,3160,Pluviográfica,INSTITUTO DE HIDROLOGIA METEOROLOGIA Y ESTUDIOS AMBIENTALES,Area Operativa 11 - Cundinamarca-Amazonas,Cundinamarca,Zipaquirá,1951-01-15,,PRECIPITACION,PTPM_TT_M,Precipitación total mensual,Mensual,2003-12-01,46.0,50,,900,49.281227,chirps-v2.0.2003.12.tif
20088,35030230,PARRADOS SAN ISIDR  [35030230],4.383333333,-73.76666667,3500,Pluviométrica,EMPRESA DE ACUEDUCTO Y ALCANTARILLADO DE BOGOTA E.S.P,Area Operativa 11 - Cundinamarca-Amazonas,Cundinamarca,Fómeque,1987-05-15,,PRECIPITACION,PTPM_TT_M,Precipitación total mensual,Mensual,2003-12-01,76.9,50,,900,66.02006,chirps-v2.0.2003.12.tif
20587,21195190,PASCA - AUT [21195190],4.310111111,-74.31175,2256,Agrometeorológica,INSTITUTO DE HIDROLOGIA METEOROLOGIA Y ESTUDIOS AMBIENTALES,Area Operativa 11 - Cundinamarca-Amazonas,Cundinamarca,Pasca,2005-08-26,,PRECIPITACION,PTPM_TT_M,Precipitación total mensual,Mensual,2003-12-01,63.0,50,,900,59.26539,chirps-v2.0.2003.12.tif
21453,23060180,PENON EL [23060180],5.253444444,-74.2945,1400,Pluviométrica,INSTITUTO DE HIDROLOGIA METEOROLOGIA Y ESTUDIOS AMBIENTALES,Area Operativa 11 - Cundinamarca-Amazonas,Cundinamarca,El Peñón,1974-09-15,,PRECIPITACION,PTPM_TT_M,Precipitación total mensual,Mensual,2003-12-01,191.9,50,,900,143.88351,chirps-v2.0.2003.12.tif
22118,21190310,PINAR EL [21190310],4.387972222,-74.32991667,1900,Pluviométrica,INSTITUTO DE HIDROLOGIA METEOROLOGIA Y ESTUDIOS AMBIENTALES,Area Operativa 11 - Cundinamarca-Amazonas,Cundinamarca,Fusagasugá,1980-08-15,,PRECIPITACION,PTPM_TT_M,Precipitación total mensual,Mensual,2003-12-01,264.3,50,,900,48.228703,chirps-v2.0.2003.12.tif
23107,21200620,PISCIS [21200620],5.079166667,-73.69686111,2820,Pluviométrica,INSTITUTO DE HIDROLOGIA METEOROLOGIA Y ESTUDIOS AMBIENTALES,Area Operativa 11 - Cundinamarca-Amazonas,Cundinamarca,Chocontá,1985-03-15,,PRECIPITACION,PTPM_TT_M,Precipitación total mensual,Mensual,2003-12-01,31.9,50,,900,31.141129,chirps-v2.0.2003.12.tif
23519,35030170,PLAYA LA  [35030170],4.55,-73.76666667,3100,Pluviométrica,EMPRESA DE ACUEDUCTO Y ALCANTARILLADO DE BOGOTA E.S.P,Area Operativa 11 - Cundinamarca-Amazonas,Cundinamarca,Fómeque,1966-03-15,,PRECIPITACION,PTPM_TT_M,Precipitación total mensual,Mensual,2003-12-01,89.9,50,,900,68.06955,chirps-v2.0.2003.12.tif
24245,35060160,POTRERITOS [35060160],4.828805556,-73.76927778,2802,Pluviométrica,INSTITUTO DE HIDROLOGIA METEOROLOGIA Y ESTUDIOS AMBIENTALES,Area Operativa 11 - Cundinamarca-Amazonas,Cundinamarca,Guatavita,1972-08-15,,PRECIPITACION,PTPM_TT_M,Precipitación total mensual,Mensual,2003-12-01,23.8,50,,900,56.45875,chirps-v2.0.2003.12.tif
24690,21200780,POTRERO LARGO [21200780],4.929222222,-73.78047222,2780,Pluviométrica,INSTITUTO DE HIDROLOGIA METEOROLOGIA Y ESTUDIOS AMBIENTALES,Area Operativa 11 - Cundinamarca-Amazonas,Cundinamarca,Guatavita,1985-03-15,,PRECIPITACION,PTPM_TT_M,Precipitación total mensual,Mensual,2003-12-01,40.5,50,,900,51.756977,chirps-v2.0.2003.12.tif
25959,21206180,PRIMAVERA D MATIMA [21206180],4.8055,-74.44347222,1850,Climática Ordinaria,INSTITUTO DE HIDROLOGIA METEOROLOGIA Y ESTUDIOS AMBIENTALES,Area Operativa 11 - Cundinamarca-Amazonas,Cundinamarca,Anolaima,1986-04-15,,PRECIPITACION,PTPM_TT_M,Precipitación total mensual,Mensual,2003-12-01,85.4,50,,900,103.452415,chirps-v2.0.2003.12.tif
26840,21205980,PROVIDENCIA GRANJA [21205980],4.792388889,-74.20091667,2560,Climática Ordinaria,INSTITUTO DE HIDROLOGIA METEOROLOGIA Y ESTUDIOS AMBIENTALES,Area Operativa 11 - Cundinamarca-Amazonas,Cundinamarca,Tenjo,1977-02-15,,PRECIPITACION,PTPM_TT_M,Precipitación total mensual,Mensual,2003-12-01,46.0,50,,900,53.63598,chirps-v2.0.2003.12.tif
27556,24010380,PTE EL  [24010380],5.35,-73.66666667,2810,Pluviográfica,CORPORACION AUTONOMA REGIONAL DE CUNDINAMARCA,Area Operativa 11 - Cundinamarca-Amazonas,Cundinamarca,Guachetá,1962-12-15,,PRECIPITACION,PTPM_TT_M,Precipitación total mensual,Mensual,2003-12-01,0.0,50,,900,54.872925,chirps-v2.0.2003.12.tif
30167,21206590,REPRESA SISGA  [21206590],5.083333333,-73.73333333,2675,Climática Ordinaria,CORPORACION AUTONOMA REGIONAL DE CUNDINAMARCA,Area Operativa 11 - Cundinamarca-Amazonas,Cundinamarca,Chocontá,1952-12-15,,PRECIPITACION,PTPM_TT_M,Precipitación total mensual,Mensual,2003-12-01,0.0,50,,900,36.881718,chirps-v2.0.2003.12.tif
30445,21201550,ROBLE EL [21201550],4.796666667,-74.22638889,2560,Pluviométrica,INSTITUTO DE HIDROLOGIA METEOROLOGIA Y ESTUDIOS AMBIENTALES,Area Operativa 11 - Cundinamarca-Amazonas,Cundinamarca,Madrid,1985-07-15,,PRECIPITACION,PTPM_TT_M,Precipitación total mensual,Mensual,2003-12-01,49.8,50,,900,53.63598,chirps-v2.0.2003.12.tif
30928,23065100,SABANETA [23065100],4.90175,-74.30738889,2475,Climática Ordinaria,INSTITUTO DE HIDROLOGIA METEOROLOGIA Y ESTUDIOS AMBIENTALES,Area Operativa 11 - Cundinamarca-Amazonas,Cundinamarca, La Vega,1986-08-15,,PRECIPITACION,PTPM_TT_M,Precipitación total mensual,Mensual,2003-12-01,233.5,4,,900,99.88923,chirps-v2.0.2003.12.tif
31521,21200880,SALITRE EL - NEUSA  [21200880],5.183333333,-74.0,3140,Pluviográfica,CORPORACION AUTONOMA REGIONAL DE CUNDINAMARCA,Area Operativa 11 - Cundinamarca-Amazonas,Cundinamarca,Tausa,1955-04-15,,PRECIPITACION,PTPM_TT_M,Precipitación total mensual,Mensual,2003-12-01,27.7,50,,900,56.57986,chirps-v2.0.2003.12.tif
32137,21201800,SAN GREGORIO  [21201800],4.683333333,-74.5,1050,Pluviográfica,CORPORACION AUTONOMA REGIONAL DE CUNDINAMARCA,Area Operativa 11 - Cundinamarca-Amazonas,Cundinamarca,Cachipay,1989-02-15,,PRECIPITACION,PTPM_TT_M,Precipitación total mensual,Mensual,2003-12-01,57.5,50,,900,90.54283,chirps-v2.0.2003.12.tif
32432,21201610,SAN ISIDRO [21201610],4.850288889,-73.89072222,2698,Pluviométrica,INSTITUTO DE HIDROLOGIA METEOROLOGIA Y ESTUDIOS AMBIENTALES,Area Operativa 11 - Cundinamarca-Amazonas,Cundinamarca,Guasca,1987-05-15,,PRECIPITACION,PTPM_TT_M,Precipitación total mensual,Mensual,2003-12-01,58.5,50,,900,60.468082,chirps-v2.0.2003.12.tif
33110,21201720,SAN JORGE GJA  [21201720],4.516666667,-74.2,2890,Pluviográfica,CORPORACION AUTONOMA REGIONAL DE CUNDINAMARCA,Area Operativa 11 - Cundinamarca-Amazonas,Cundinamarca,Soacha,1960-04-15,,PRECIPITACION,PTPM_TT_M,Precipitación total mensual,Mensual,2003-12-01,228.8,50,,900,71.09209,chirps-v2.0.2003.12.tif
33707,21205720,SAN JORGE GRANJA [21205720],4.50575,-74.18927778,2900,Climática Ordinaria,INSTITUTO DE HIDROLOGIA METEOROLOGIA Y ESTUDIOS AMBIENTALES,Area Operativa 11 - Cundinamarca-Amazonas,Cundinamarca,Soacha,1960-04-15,,PRECIPITACION,PTPM_TT_M,Precipitación total mensual,Mensual,2003-12-01,26.9,50,,900,62.29536,chirps-v2.0.2003.12.tif
34408,21200800,SAN JOSE  [21200800],4.983333333,-73.9,2700,Pluviográfica,CORPORACION AUTONOMA REGIONAL DE CUNDINAMARCA,Area Operativa 11 - Cundinamarca-Amazonas,Cundinamarca,Guasca,1960-10-15,,PRECIPITACION,PTPM_TT_M,Precipitación total mensual,Mensual,2003-12-01,52.6,50,,900,59.570194,chirps-v2.0.2003.12.tif
34516,35030210,SAN JOSE  [35030210],4.533333333,-73.73333333,3200,Pluviométrica,EMPRESA DE ACUEDUCTO Y ALCANTARILLADO DE BOGOTA E.S.P,Area Operativa 11 - Cundinamarca-Amazonas,Cundinamarca,Fómeque,1987-06-15,,PRECIPITACION,PTPM_TT_M,Precipitación total mensual,Mensual,2003-12-01,103.4,50,,900,65.23064,chirps-v2.0.2003.12.tif
35081,21230070,SAN JUAN D RIOSECO [21230070],4.851277778,-74.62283333,1364,Pluviométrica,INSTITUTO DE HIDROLOGIA METEOROLOGIA Y ESTUDIOS AMBIENTALES,Area Operativa 10 - Tolima,Cundinamarca,San Juan De Rioseco,1974-12-15,,PRECIPITACION,PTPM_TT_M,Precipitación total mensual,Mensual,2003-12-01,171.8,50,,1200,94.686615,chirps-v2.0.2003.12.tif
36087,35030260,SAN LUIS  [35030260],4.483333333,-73.65,2959,Pluviométrica,EMPRESA DE ACUEDUCTO Y ALCANTARILLADO DE BOGOTA E.S.P,Area Operativa 11 - Cundinamarca-Amazonas,Cundinamarca,Fómeque,1990-08-15,,PRECIPITACION,PTPM_TT_M,Precipitación total mensual,Mensual,2003-12-01,97.4,50,,900,108.35378,chirps-v2.0.2003.12.tif
37358,21200110,SAN RAFAEL 1  [21200110],4.7,-73.98333333,2750,Pluviométrica,EMPRESA DE ACUEDUCTO Y ALCANTARILLADO DE BOGOTA E.S.P,Area Operativa 11 - Cundinamarca-Amazonas,Cundinamarca,La Calera,1933-05-15,,PRECIPITACION,PTPM_TT_M,Precipitación total mensual,Mensual,2003-12-01,71.0,50,,900,56.798126,chirps-v2.0.2003.12.tif
37737,21206980,SANTA CRUZ DE SIECHA  - AUT [21206980],4.784277778,-73.87080556,3100,Agrometeorológica,INSTITUTO DE HIDROLOGIA METEOROLOGIA Y ESTUDIOS AMBIENTALES,Area Operativa 11 - Cundinamarca-Amazonas,Cundinamarca,Guasca,2005-11-08,,PRECIPITACION,PTPM_TT_M,Precipitación total mensual,Mensual,2003-12-01,65.0,50,,900,56.627174,chirps-v2.0.2003.12.tif
38904,35025060,BOLSA LA [35025060],4.575416667,-73.98141667,3195,Climática Ordinaria,INSTITUTO DE HIDROLOGIA METEOROLOGIA Y ESTUDIOS AMBIENTALES,Area Operativa 11 - Cundinamarca-Amazonas,Cundinamarca,Choachí,1987-05-15,,PRECIPITACION,PTPM_TT_M,Precipitación total mensual,Mensual,2003-12-01,118.0,50,,900,71.78558,chirps-v2.0.2003.12.tif
39865,23065120,CABRERA LA AUT [23065120],5.141555556,-74.13936111,20,Climática Principal,INSTITUTO DE HIDROLOGIA METEOROLOGIA Y ESTUDIOS AMBIENTALES,Area Operativa 11 - Cundinamarca-Amazonas,Cundinamarca,Pacho,1974-09-15,,PRECIPITACION,PTPM_TT_M,Precipitación total mensual,Mensual,2003-12-01,92.4,50,,900,74.89287,chirps-v2.0.2003.12.tif
40433,21201650,SANTA ROSITA [21201650],5.115916667,-73.75738889,2750,Pluviométrica,INSTITUTO DE HIDROLOGIA METEOROLOGIA Y ESTUDIOS AMBIENTALES,Area Operativa 11 - Cundinamarca-Amazonas,Cundinamarca,Suesca,1988-08-15,,PRECIPITACION,PTPM_TT_M,Precipitación total mensual,Mensual,2003-12-01,32.7,50,,900,44.732567,chirps-v2.0.2003.12.tif
40838,23065060,SANTA TERESA [23065060],4.842166667,-74.46169444,2200,Climática Ordinaria,INSTITUTO DE HIDROLOGIA METEOROLOGIA Y ESTUDIOS AMBIENTALES,Area Operativa 11 - Cundinamarca-Amazonas,Cundinamarca,Guayabal De Síquima,1988-12-15,,PRECIPITACION,PTPM_TT_M,Precipitación total mensual,Mensual,2003-12-01,177.4,50,,900,106.80522,chirps-v2.0.2003.12.tif
41564,21200270,SAUCIO  [21200270],5.108833333,-73.70627778,2640,Pluviográfica,CORPORACION AUTONOMA REGIONAL DE CUNDINAMARCA,Area Operativa 11 - Cundinamarca-Amazonas,Cundinamarca,Chocontá,1947-06-15,,PRECIPITACION,PTPM_TT_M,Precipitación total mensual,Mensual,2003-12-01,20.2,50,,900,36.70757,chirps-v2.0.2003.12.tif
42458,21200510,SIBATE APOSTOLICA  [21200510],4.516666667,-74.25,2618,Pluviográfica,CORPORACION AUTONOMA REGIONAL DE CUNDINAMARCA,Area Operativa 11 - Cundinamarca-Amazonas,Cundinamarca,Sibaté,1956-05-15,,PRECIPITACION,PTPM_TT_M,Precipitación total mensual,Mensual,2003-12-01,20.9,50,,900,69.441925,chirps-v2.0.2003.12.tif
42751,23060290,SILENCIO EL [23060290],4.973166667,-74.41205556,1425,Pluviométrica,INSTITUTO DE HIDROLOGIA METEOROLOGIA Y ESTUDIOS AMBIENTALES,Area Operativa 11 - Cundinamarca-Amazonas,Cundinamarca,Sasaima,1986-03-15,,PRECIPITACION,PTPM_TT_M,Precipitación total mensual,Mensual,2003-12-01,90.2,50,,900,120.132286,chirps-v2.0.2003.12.tif
43612,21202000,SIMAYA  [21202000],4.716666667,-73.88333333,2780,Pluviométrica,EMPRESA DE ACUEDUCTO Y ALCANTARILLADO DE BOGOTA E.S.P,Area Operativa 11 - Cundinamarca-Amazonas,Cundinamarca,La Calera,1987-01-15,,PRECIPITACION,PTPM_TT_M,Precipitación total mensual,Mensual,2003-12-01,0.0,50,,900,69.54879,chirps-v2.0.2003.12.tif
44034,21201360,STA INES  [21201360],4.816666667,-74.13333333,2550,Pluviométrica,CORPORACION AUTONOMA REGIONAL DE CUNDINAMARCA,Area Operativa 11 - Cundinamarca-Amazonas,Cundinamarca,Tenjo,1980-03-15,,PRECIPITACION,PTPM_TT_M,Precipitación total mensual,Mensual,2003-12-01,32.4,50,,900,61.02072,chirps-v2.0.2003.12.tif
44508,21201760,STA ISABEL  [21201760],4.983333333,-74.06666667,2680,Pluviométrica,CORPORACION AUTONOMA REGIONAL DE CUNDINAMARCA,Area Operativa 11 - Cundinamarca-Amazonas,Cundinamarca,Tabio,1968-05-15,,PRECIPITACION,PTPM_TT_M,Precipitación total mensual,Mensual,2003-12-01,6.9,50,,900,54.927635,chirps-v2.0.2003.12.tif
44881,21201030,STA TERESA  [21201030],4.666666667,-73.93333333,3080,Pluviográfica,CORPORACION AUTONOMA REGIONAL DE CUNDINAMARCA,Area Operativa 11 - Cundinamarca-Amazonas,Cundinamarca,La Calera,1970-09-15,,PRECIPITACION,PTPM_TT_M,Precipitación total mensual,Mensual,2003-12-01,39.0,50,,900,77.50423,chirps-v2.0.2003.12.tif
46137,23060200,SUPATA [23060200],5.059694444,-74.239166667,1798,Pluviométrica,INSTITUTO DE HIDROLOGIA METEOROLOGIA Y ESTUDIOS AMBIENTALES,Area Operativa 11 - Cundinamarca-Amazonas,Cundinamarca,Supata,1974-09-15,,PRECIPITACION,PTPM_TT_M,Precipitación total mensual,Mensual,2003-12-01,147.9,50,,900,101.592514,chirps-v2.0.2003.12.tif
46824,24015210,SUTATAUSA  [24015210],5.25,-73.85,2700,Climática Ordinaria,CORPORACION AUTONOMA REGIONAL DE CUNDINAMARCA,Area Operativa 11 - Cundinamarca-Amazonas,Cundinamarca,Sutatausa,1965-04-15,,PRECIPITACION,PTPM_TT_M,Precipitación total mensual,Mensual,2003-12-01,34.6,4,,900,38.177143,chirps-v2.0.2003.12.tif
47232,21205650,TABIO  [21205650],4.766666667,-73.93333333,2620,Climática Principal,CORPORACION AUTONOMA REGIONAL DE CUNDINAMARCA,Area Operativa 11 - Cundinamarca-Amazonas,Cundinamarca,Tabio,1970-07-15,,PRECIPITACION,PTPM_TT_M,Precipitación total mensual,Mensual,2003-12-01,11.5,50,,900,55.47087,chirps-v2.0.2003.12.tif
47472,21201630,TABIO GRANJA [21201630],4.933055556,-74.06561111,2600,Pluviográfica,INSTITUTO DE HIDROLOGIA METEOROLOGIA Y ESTUDIOS AMBIENTALES,Area Operativa 11 - Cundinamarca-Amazonas,Cundinamarca,Tabio,1987-05-15,,PRECIPITACION,PTPM_TT_M,Precipitación total mensual,Mensual,2003-12-01,84.0,50,,900,55.942886,chirps-v2.0.2003.12.tif
48501,35060170,TASAJERAS [35060170],4.885694444,-73.60036111,2502,Pluviométrica,INSTITUTO DE HIDROLOGIA METEOROLOGIA Y ESTUDIOS AMBIENTALES,Area Operativa 11 - Cundinamarca-Amazonas,Cundinamarca,Gachetá,1972-02-15,,PRECIPITACION,PTPM_TT_M,Precipitación total mensual,Mensual,2003-12-01,78.0,50,,900,81.12915,chirps-v2.0.2003.12.tif
49084,35060150,TEMBLADARES [35060150],4.704861111,-73.66527778,2878,Pluviométrica,INSTITUTO DE HIDROLOGIA METEOROLOGIA Y ESTUDIOS AMBIENTALES,Area Operativa 11 - Cundinamarca-Amazonas,Cundinamarca,Junín,1972-02-15,,PRECIPITACION,PTPM_TT_M,Precipitación total mensual,Mensual,2003-12-01,348.0,50,,900,92.65372,chirps-v2.0.2003.12.tif
49733,21200690,TESORO-VERTIENTES  [21200690],4.8,-74.31666667,2610,Pluviométrica,CORPORACION AUTONOMA REGIONAL DE CUNDINAMARCA,Area Operativa 11 - Cundinamarca-Amazonas,Cundinamarca,Facatativá,1931-08-15,,PRECIPITACION,PTPM_TT_M,Precipitación total mensual,Mensual,2003-12-01,97.4,50,,900,94.132545,chirps-v2.0.2003.12.tif
50460,21190030,TIBACUY [21190030],4.348055556,-74.45447222,1635,Pluviográfica,INSTITUTO DE HIDROLOGIA METEOROLOGIA Y ESTUDIOS AMBIENTALES,Area Operativa 11 - Cundinamarca-Amazonas,Cundinamarca,Tibacuy,1986-10-15,,PRECIPITACION,PTPM_TT_M,Precipitación total mensual,Mensual,2003-12-01,161.6,50,,900,97.27097,chirps-v2.0.2003.12.tif
51272,21205420,TIBAITATA [21205420],4.691416667,-74.209,2543,Agrometeorológica,INSTITUTO DE HIDROLOGIA METEOROLOGIA Y ESTUDIOS AMBIENTALES,Area Operativa 11 - Cundinamarca-Amazonas,Cundinamarca,Mosquera,1954-03-15,,PRECIPITACION,PTPM_TT_M,Precipitación total mensual,Mensual,2003-12-01,12.5,50,,900,43.44956,chirps-v2.0.2003.12.tif
52256,21201100,TOCAIMA [21201100],4.466666667,-74.65,490,Pluviométrica,INSTITUTO DE HIDROLOGIA METEOROLOGIA Y ESTUDIOS AMBIENTALES,Area Operativa 11 - Cundinamarca-Amazonas,Cundinamarca,Tocaima,1974-11-15,,PRECIPITACION,PTPM_TT_M,Precipitación total mensual,Mensual,2003-12-01,26.9,50,,900,54.68904,chirps-v2.0.2003.12.tif
53021,35060230,TRES ESQUINAS [35060230],4.781416667,-73.48905556,1943,Pluviométrica,INSTITUTO DE HIDROLOGIA METEOROLOGIA Y ESTUDIOS AMBIENTALES,Area Operativa 11 - Cundinamarca-Amazonas,Cundinamarca,Ubalá,1972-02-15,,PRECIPITACION,PTPM_TT_M,Precipitación total mensual,Mensual,2003-12-01,66.1,50,,900,98.761,chirps-v2.0.2003.12.tif
53605,21201850,TRIBUNA LA  [21201850],4.85,-74.41666667,2723,Pluviográfica,CORPORACION AUTONOMA REGIONAL DE CUNDINAMARCA,Area Operativa 11 - Cundinamarca-Amazonas,Cundinamarca,Facatativá,1992-06-15,,PRECIPITACION,PTPM_TT_M,Precipitación total mensual,Mensual,2003-12-01,0.0,50,,900,127.45392,chirps-v2.0.2003.12.tif
54053,23060140,TUSCOLO EL [23060140],5.069444444,-74.608055556,985,Pluviométrica,INSTITUTO DE HIDROLOGIA METEOROLOGIA Y ESTUDIOS AMBIENTALES,Area Operativa 11 - Cundinamarca-Amazonas,Cundinamarca,Guaduas,1971-02-15,,PRECIPITACION,PTPM_TT_M,Precipitación total mensual,Mensual,2003-12-01,47.3,50,,900,90.834305,chirps-v2.0.2003.12.tif
54766,35060180,UBALA [35060180],4.752388889,-73.52858333,1929,Pluviométrica,INSTITUTO DE HIDROLOGIA METEOROLOGIA Y ESTUDIOS AMBIENTALES,Area Operativa 11 - Cundinamarca-Amazonas,Cundinamarca,Ubalá,1959-08-15,,PRECIPITACION,PTPM_TT_M,Precipitación total mensual,Mensual,2003-12-01,51.7,50,,900,103.851944,chirps-v2.0.2003.12.tif
55177,24011090,UBATE GRANJA [24011090],5.327333333,-73.79144444,2555,Pluviográfica,INSTITUTO DE HIDROLOGIA METEOROLOGIA Y ESTUDIOS AMBIENTALES,Area Operativa 11 - Cundinamarca-Amazonas,Cundinamarca,Ubaté,1987-05-15,2010-03-31 00:00:00,PRECIPITACION,PTPM_TT_M,Precipitación total mensual,Mensual,2003-12-01,48.4,50,,900,49.273216,chirps-v2.0.2003.12.tif
55924,35020420,UNE  [35020420],4.4,-74.01666667,2430,Pluviométrica,EMPRESA DE ACUEDUCTO Y ALCANTARILLADO DE BOGOTA E.S.P,Area Operativa 11 - Cundinamarca-Amazonas,Cundinamarca,Une,1947-01-15,,PRECIPITACION,PTPM_TT_M,Precipitación total mensual,Mensual,2003-12-01,40.9,50,,900,67.69586,chirps-v2.0.2003.12.tif
56234,21201320,UNION LA [21201320],4.509361111,-74.26880556,2640,Pluviométrica,INSTITUTO DE HIDROLOGIA METEOROLOGIA Y ESTUDIOS AMBIENTALES,Area Operativa 11 - Cundinamarca-Amazonas,Cundinamarca,Sibaté,1985-03-15,,PRECIPITACION,PTPM_TT_M,Precipitación total mensual,Mensual,2003-12-01,20.3,50,,900,69.441925,chirps-v2.0.2003.12.tif
56930,21200550,UNION LA-EL ROSAL  [21200550],4.866666667,-74.25,2725,Pluviométrica,CORPORACION AUTONOMA REGIONAL DE CUNDINAMARCA,Area Operativa 11 - Cundinamarca-Amazonas,Cundinamarca,Subachoque,1960-01-15,,PRECIPITACION,PTPM_TT_M,Precipitación total mensual,Mensual,2003-12-01,62.0,50,,900,93.140594,chirps-v2.0.2003.12.tif
57074,21195140,UNIV FUSAGASUGA  [21195140],4.333333333,-74.36666667,1720,Climática Principal,CORPORACION AUTONOMA REGIONAL DE CUNDINAMARCA,Area Operativa 11 - Cundinamarca-Amazonas,Cundinamarca,Fusagasugá,1996-06-15,,PRECIPITACION,PTPM_TT_M,Precipitación total mensual,Mensual,2003-12-01,0.0,50,,900,92.96708,chirps-v2.0.2003.12.tif
57496,23060190,UTICA [23060190],5.196083333,-74.4855,497,Pluviométrica,INSTITUTO DE HIDROLOGIA METEOROLOGIA Y ESTUDIOS AMBIENTALES,Area Operativa 11 - Cundinamarca-Amazonas,Cundinamarca,Útica,1974-09-15,,PRECIPITACION,PTPM_TT_M,Precipitación total mensual,Mensual,2003-12-01,59.6,50,,900,109.767296,chirps-v2.0.2003.12.tif
58300,35060120,VEGA LA SAN JUAN [35060120],4.723305556,-73.47055556,1791,Pluviométrica,INSTITUTO DE HIDROLOGIA METEOROLOGIA Y ESTUDIOS AMBIENTALES,Area Operativa 11 - Cundinamarca-Amazonas,Cundinamarca,Gachalá,1972-02-15,,PRECIPITACION,PTPM_TT_M,Precipitación total mensual,Mensual,2003-12-01,74.6,50,,900,98.07648,chirps-v2.0.2003.12.tif
58868,21206290,VENECIA  [21206290],4.866666667,-74.41666667,2673,Climática Principal,CORPORACION AUTONOMA REGIONAL DE CUNDINAMARCA,Area Operativa 11 - Cundinamarca-Amazonas,Cundinamarca,Facatativá,1986-12-15,,PRECIPITACION,PTPM_TT_M,Precipitación total mensual,Mensual,2003-12-01,103.0,50,,900,127.45392,chirps-v2.0.2003.12.tif
60029,21206400,VICTORIA LA  [21206400],4.466666667,-74.6,380,Climática Principal,CORPORACION AUTONOMA REGIONAL DE CUNDINAMARCA,Area Operativa 10 - Tolima,Cundinamarca,Tocaima,1986-12-15,,PRECIPITACION,PTPM_TT_M,Precipitación total mensual,Mensual,2003-12-01,7.4,50,,900,59.945335,chirps-v2.0.2003.12.tif
60203,21205940,VILLA INES  - AUT [21205940],4.83211,-74.38056,2590,Climática Principal,INSTITUTO DE HIDROLOGIA METEOROLOGIA Y ESTUDIOS AMBIENTALES,Area Operativa 11 - Cundinamarca-Amazonas,Cundinamarca,Facatativá,1977-02-15,,PRECIPITACION,PTPM_TT_M,Precipitación total mensual,Mensual,2003-12-01,99.4,4,,900,109.30795,chirps-v2.0.2003.12.tif
60539,21201880,VILLA PAULA  [21201880],4.933333333,-74.08333333,2750,Pluviográfica,CORPORACION AUTONOMA REGIONAL DE CUNDINAMARCA,Area Operativa 11 - Cundinamarca-Amazonas,Cundinamarca,Tabio,1992-01-15,,PRECIPITACION,PTPM_TT_M,Precipitación total mensual,Mensual,2003-12-01,0.0,50,,900,55.942886,chirps-v2.0.2003.12.tif
60673,23125150,VILLAGOMEZ [23125150],5.27175,-74.19677778,1575,Pluviométrica,INSTITUTO DE HIDROLOGIA METEOROLOGIA Y ESTUDIOS AMBIENTALES,Area Operativa 11 - Cundinamarca-Amazonas,Cundinamarca,Villagómez,1997-08-15,,PRECIPITACION,PTPM_TT_M,Precipitación total mensual,Mensual,2003-12-01,182.8,50,,900,117.04788,chirps-v2.0.2003.12.tif
61712,21201640,VILLAPINZON GRANJA [21201640],5.26375,-73.59086111,2745,Pluviográfica,INSTITUTO DE HIDROLOGIA METEOROLOGIA Y ESTUDIOS AMBIENTALES,Area Operativa 11 - Cundinamarca-Amazonas,Cundinamarca,Villapinzón,1987-05-15,,PRECIPITACION,PTPM_TT_M,Precipitación total mensual,Mensual,2003-12-01,6.5,50,,900,43.534134,chirps-v2.0.2003.12.tif
62577,21201090,VIOTA [21201090],4.442694444,-74.54225,567,Pluviométrica,INSTITUTO DE HIDROLOGIA METEOROLOGIA Y ESTUDIOS AMBIENTALES,Area Operativa 11 - Cundinamarca-Amazonas,Cundinamarca,Viotá,1974-11-15,,PRECIPITACION,PTPM_TT_M,Precipitación total mensual,Mensual,2003-12-01,13.0,50,,900,82.41238,chirps-v2.0.2003.12.tif
63506,21200740,ZIPAQUIRA  [21200740],5.016666667,-74.0,2655,Pluviográfica,CORPORACION AUTONOMA REGIONAL DE CUNDINAMARCA,Area Operativa 11 - Cundinamarca-Amazonas,Cundinamarca,Zipaquirá,1960-02-15,,PRECIPITACION,PTPM_TT_M,Precipitación total mensual,Mensual,2003-12-01,19.0,50,,900,49.281227,chirps-v2.0.2003.12.tif
64103,35070110,GUAYATA LA GRANJA [35070110],4.976083333,-73.49930556,1580,Pluviográfica,INSTITUTO DE HIDROLOGIA METEOROLOGIA Y ESTUDIOS AMBIENTALES,Area Operativa 06 - Boyacá-Casanare-Vichada,Boyacá,Guayatá,1971-07-15,,PRECIPITACION,PTPM_TT_M,Precipitación total mensual,Mensual,2003-12-01,40.1,50,,900,73.58665,chirps-v2.0.2003.12.tif
64897,21201770,ANCLAJE 14  [21201770],4.6,-74.4,1110,Pluviográfica,CORPORACION AUTONOMA REGIONAL DE CUNDINAMARCA,Area Operativa 11 - Cundinamarca-Amazonas,Bogota,"Bogota, D.C",1987-12-15,,PRECIPITACION,PTPM_TT_M,Precipitación total mensual,Mensual,2003-12-01,0.0,50,,900,88.26053,chirps-v2.0.2003.12.tif
66197,21200080,ARRAYAN-SAN FCO  [21200080],4.583333333,-74.03333333,3047,Pluviométrica,EMPRESA DE ACUEDUCTO Y ALCANTARILLADO DE BOGOTA E.S.P,Area Operativa 11 - Cundinamarca-Amazonas,Bogota,"Bogota, D.C",1925-01-15,,PRECIPITACION,PTPM_TT_M,Precipitación total mensual,Mensual,2003-12-01,98.9,50,,900,67.11934,chirps-v2.0.2003.12.tif
66510,21201300,AUSTRALIA [21201300],4.39425,-74.132,3050,Pluviométrica,INSTITUTO DE HIDROLOGIA METEOROLOGIA Y ESTUDIOS AMBIENTALES,Area Operativa 11 - Cundinamarca-Amazonas,Bogota,"Bogota, D.C",1985-03-15,,PRECIPITACION,PTPM_TT_M,Precipitación total mensual,Mensual,2003-12-01,40.9,50,,900,48.885193,chirps-v2.0.2003.12.tif
66951,35020350,BETANIA [35020350],4.218888889,-74.14686111,3150,Pluviométrica,INSTITUTO DE HIDROLOGIA METEOROLOGIA Y ESTUDIOS AMBIENTALES,Area Operativa 11 - Cundinamarca-Amazonas,Bogota,"Bogota, D.C",1986-01-15,,PRECIPITACION,PTPM_TT_M,Precipitación total mensual,Mensual,2003-12-01,25.7,50,,900,64.01187,chirps-v2.0.2003.12.tif
68560,21206260,C.UNIV.AGROP-UDCA [21206260],4.798638889,-74.04972222,2570,Climática Ordinaria,INSTITUTO DE HIDROLOGIA METEOROLOGIA Y ESTUDIOS AMBIENTALES,Area Operativa 11 - Cundinamarca-Amazonas,Bogota,"Bogota, D.C",1988-12-15,,PRECIPITACION,PTPM_TT_M,Precipitación total mensual,Mensual,2003-12-01,96.9,4,,900,53.64214,chirps-v2.0.2003.12.tif
69095,21205690,CAMAVIEJA  [21205690],4.616666667,-74.1,2680,Climática Ordinaria,EMPRESA DE ACUEDUCTO Y ALCANTARILLADO DE BOGOTA E.S.P,Area Operativa 11 - Cundinamarca-Amazonas,Bogota,"Bogota, D.C",1957-11-15,,PRECIPITACION,PTPM_TT_M,Precipitación total mensual,Mensual,2003-12-01,58.0,50,,900,52.75776,chirps-v2.0.2003.12.tif
69517,21201970,CASABLANCA  [21201970],4.566666667,-74.16666667,2665,Pluviométrica,EMPRESA DE ACUEDUCTO Y ALCANTARILLADO DE BOGOTA E.S.P,Area Operativa 11 - Cundinamarca-Amazonas,Bogota,"Bogota, D.C",1976-05-15,,PRECIPITACION,PTPM_TT_M,Precipitación total mensual,Mensual,2003-12-01,40.9,50,,900,64.58657,chirps-v2.0.2003.12.tif
70305,21200310,CERRO DE SUBA  [21200310],4.75,-74.06666667,2691,Pluviométrica,EMPRESA DE ACUEDUCTO Y ALCANTARILLADO DE BOGOTA E.S.P,Area Operativa 11 - Cundinamarca-Amazonas,Bogota,"Bogota, D.C",1947-09-15,,PRECIPITACION,PTPM_TT_M,Precipitación total mensual,Mensual,2003-12-01,26.7,50,,900,60.98014,chirps-v2.0.2003.12.tif
70878,21200850,CISACA  [21200850],4.483333333,-74.08333333,2880,Pluviográfica,CORPORACION AUTONOMA REGIONAL DE CUNDINAMARCA,Area Operativa 11 - Cundinamarca-Amazonas,Bogota,"Bogota, D.C",1962-12-15,,PRECIPITACION,PTPM_TT_M,Precipitación total mensual,Mensual,2003-12-01,80.3,4,,900,59.805744,chirps-v2.0.2003.12.tif
71338,21206660,COL SANTIAGO PEREZ [21206660],4.576222222,-74.13091667,2565,Climática Ordinaria,INSTITUTO DE HIDROLOGIA METEOROLOGIA Y ESTUDIOS AMBIENTALES,Area Operativa 11 - Cundinamarca-Amazonas,Bogota,"Bogota, D.C",2001-11-15,2019-05-03 15:02:00,PRECIPITACION,PTPM_TT_M,Precipitación total mensual,Mensual,2003-12-01,83.6,4,,900,68.63002,chirps-v2.0.2003.12.tif
71442,21206650,COLEGIO SAN CAYETANO [21206650],4.516752778,-74.088222222,3100,Climática Ordinaria,INSTITUTO DE HIDROLOGIA METEOROLOGIA Y ESTUDIOS AMBIENTALES,Area Operativa 11 - Cundinamarca-Amazonas,Bogota,"Bogota, D.C",2001-11-15,,PRECIPITACION,PTPM_TT_M,Precipitación total mensual,Mensual,2003-12-01,13.1,4,,900,69.97462,chirps-v2.0.2003.12.tif
71778,21202080,CONEJERA LA  [21202080],4.766666667,-74.06666667,2500,Pluviográfica,EMPRESA DE ACUEDUCTO Y ALCANTARILLADO DE BOGOTA E.S.P,Area Operativa 11 - Cundinamarca-Amazonas,Bogota,"Bogota, D.C",1990-05-15,,PRECIPITACION,PTPM_TT_M,Precipitación total mensual,Mensual,2003-12-01,42.3,50,,900,60.98014,chirps-v2.0.2003.12.tif
73071,21200130,DELIRIO  [21200130],4.55,-74.05,3000,Pluviométrica,EMPRESA DE ACUEDUCTO Y ALCANTARILLADO DE BOGOTA E.S.P,Area Operativa 11 - Cundinamarca-Amazonas,Bogota,"Bogota, D.C",1933-05-15,,PRECIPITACION,PTPM_TT_M,Precipitación total mensual,Mensual,2003-12-01,80.4,50,,900,74.49599,chirps-v2.0.2003.12.tif
73337,21206300,DONA JUANA  [21206300],4.5,-74.16666667,2700,Climática Principal,CORPORACION AUTONOMA REGIONAL DE CUNDINAMARCA,Area Operativa 11 - Cundinamarca-Amazonas,Bogota,"Bogota, D.C",1989-03-15,,PRECIPITACION,PTPM_TT_M,Precipitación total mensual,Mensual,2003-12-01,0.0,50,,900,62.29536,chirps-v2.0.2003.12.tif
73993,21205791,ELDORADO CATAM - AUT [21205791],4.705583333,-74.15066667,2547,Sinóptica Principal,INSTITUTO DE HIDROLOGIA METEOROLOGIA Y ESTUDIOS AMBIENTALES,Area Operativa 11 - Cundinamarca-Amazonas,Bogota,"Bogota, D.C",2002-10-31,,PRECIPITACION,PTPM_TT_M,Precipitación total mensual,Mensual,2003-12-01,78.8,50,,900,44.102943,chirps-v2.0.2003.12.tif
76748,21202130,CEDRAL EL  [21202130],5.066666667,-74.0,2650,Pluviométrica,CORPORACION AUTONOMA REGIONAL DE CUNDINAMARCA,Area Operativa 11 - Cundinamarca-Amazonas,Cundinamarca,Cogua,1997-12-15,,PRECIPITACION,PTPM_TT_M,Precipitación total mensual,Mensual,2003-12-01,29.4,50,,900,43.41175,chirps-v2.0.2003.12.tif
77600,21206050,ESCUELA COL INGENIERIA [21206050],4.783333333,-74.05,2650,Climática Principal,INSTITUTO DE HIDROLOGIA METEOROLOGIA Y ESTUDIOS AMBIENTALES,Area Operativa 11 - Cundinamarca-Amazonas,Bogota,"Bogota, D.C",1986-04-15,2008-12-10 00:00:00,PRECIPITACION,PTPM_TT_M,Precipitación total mensual,Mensual,2003-12-01,59.6,50,,900,60.98014,chirps-v2.0.2003.12.tif
78688,21202120,FONTIBON ACUEDUCTO  [21202120],4.666666667,-74.15,2545,Pluviométrica,EMPRESA DE ACUEDUCTO Y ALCANTARILLADO DE BOGOTA E.S.P,Area Operativa 11 - Cundinamarca-Amazonas,Bogota,"Bogota, D.C",1955-09-15,,PRECIPITACION,PTPM_TT_M,Precipitación total mensual,Mensual,2003-12-01,34.8,50,,900,54.581654,chirps-v2.0.2003.12.tif
79429,21200320,GRANIZO  [21200320],4.616666667,-74.05,3125,Pluviométrica,EMPRESA DE ACUEDUCTO Y ALCANTARILLADO DE BOGOTA E.S.P,Area Operativa 11 - Cundinamarca-Amazonas,Bogota,"Bogota, D.C",1947-09-15,,PRECIPITACION,PTPM_TT_M,Precipitación total mensual,Mensual,2003-12-01,112.5,50,,900,63.30165,chirps-v2.0.2003.12.tif
79721,21201980,GUADALUPE  - AUT  [21201980],4.59157,-74.05471,3227,Climática Ordinaria,FONDO DE PREVENCION Y ATENCION DE DESASTRES DE BOGOTA DC - FOPAE,Area Operativa 11 - Cundinamarca-Amazonas,Bogota,"Bogota, D.C",2007-09-01,,PRECIPITACION,PTPM_TT_M,Precipitación total mensual,Mensual,2003-12-01,91.5,50,,900,74.49599,chirps-v2.0.2003.12.tif
80592,21200200,HATO EL  [21200200],4.383333333,-74.18333333,3150,Pluviométrica,EMPRESA DE ACUEDUCTO Y ALCANTARILLADO DE BOGOTA E.S.P,Area Operativa 11 - Cundinamarca-Amazonas,Bogota,"Bogota, D.C",1928-06-15,,PRECIPITACION,PTPM_TT_M,Precipitación total mensual,Mensual,2003-12-01,28.7,50,,900,56.843254,chirps-v2.0.2003.12.tif
81234,21202100,IDEAM FONTIBON HB [21202100],4.7,-74.16666667,2511,Pluviográfica,INSTITUTO DE HIDROLOGIA METEOROLOGIA Y ESTUDIOS AMBIENTALES,Area Operativa 11 - Cundinamarca-Amazonas,Bogota,"Bogota, D.C",1998-06-15,2008-12-11 00:00:00,PRECIPITACION,PTPM_TT_M,Precipitación total mensual,Mensual,2003-12-01,74.8,50,,900,44.102943,chirps-v2.0.2003.12.tif
81297,21206560,INEM KENNEDY [21206560],4.661111111,-74.13477778,2580,Climática Ordinaria,INSTITUTO DE HIDROLOGIA METEOROLOGIA Y ESTUDIOS AMBIENTALES,Area Operativa 11 - Cundinamarca-Amazonas,Bogota,"Bogota, D.C",1998-07-15,,PRECIPITACION,PTPM_TT_M,Precipitación total mensual,Mensual,2003-12-01,20.2,4,,900,37.182205,chirps-v2.0.2003.12.tif
82642,21202040,JUAN REY  [21202040],4.516666667,-74.08333333,2682,Pluviográfica,FONDO DE PREVENCION Y ATENCION DE DESASTRES DE BOGOTA DC - FOPAE,Area Operativa 11 - Cundinamarca-Amazonas,Bogota,"Bogota, D.C",1990-08-15,,PRECIPITACION,PTPM_TT_M,Precipitación total mensual,Mensual,2003-12-01,71.9,50,,900,69.97462,chirps-v2.0.2003.12.tif
82751,21206600,NUEVA GENERACION  - AUT [21206600],4.782222222,-74.09433333,2590,Climática Principal,INSTITUTO DE HIDROLOGIA METEOROLOGIA Y ESTUDIOS AMBIENTALES,Area Operativa 11 - Cundinamarca-Amazonas,Bogota,"Bogota, D.C",2001-11-15,,PRECIPITACION,PTPM_TT_M,Precipitación total mensual,Mensual,2003-12-01,24.8,50,,900,60.98014,chirps-v2.0.2003.12.tif
84805,21201560,PICOTA LA  [21201560],4.566666667,-74.13333333,2580,Pluviográfica,CORPORACION AUTONOMA REGIONAL DE CUNDINAMARCA,Area Operativa 11 - Cundinamarca-Amazonas,Bogota,"Bogota, D.C",1980-06-15,,PRECIPITACION,PTPM_TT_M,Precipitación total mensual,Mensual,2003-12-01,34.3,50,,900,68.63002,chirps-v2.0.2003.12.tif
85057,21202050,QUIBA  [21202050],4.533333333,-74.16666667,3000,Pluviográfica,EMPRESA DE ACUEDUCTO Y ALCANTARILLADO DE BOGOTA E.S.P,Area Operativa 11 - Cundinamarca-Amazonas,Bogota,"Bogota, D.C",1990-01-15,,PRECIPITACION,PTPM_TT_M,Precipitación total mensual,Mensual,2003-12-01,35.0,50,,900,62.29536,chirps-v2.0.2003.12.tif
85464,21205090,REGADERA 1  [21205090],4.4,-74.15,3050,Climática Ordinaria,EMPRESA DE ACUEDUCTO Y ALCANTARILLADO DE BOGOTA E.S.P,Area Operativa 11 - Cundinamarca-Amazonas,Bogota,"Bogota, D.C",1941-08-15,,PRECIPITACION,PTPM_TT_M,Precipitación total mensual,Mensual,2003-12-01,39.7,50,,900,56.39632,chirps-v2.0.2003.12.tif
86232,21200340,REGADERA 2 LA  [21200340],4.4,-74.15,3056,Pluviométrica,EMPRESA DE ACUEDUCTO Y ALCANTARILLADO DE BOGOTA E.S.P,Area Operativa 11 - Cundinamarca-Amazonas,Bogota,"Bogota, D.C",1948-01-15,,PRECIPITACION,PTPM_TT_M,Precipitación total mensual,Mensual,2003-12-01,39.7,50,,900,56.39632,chirps-v2.0.2003.12.tif
86663,21201960,SALITRE CASA BOMBA  [21201960],4.666666667,-74.06666667,2580,Pluviográfica,EMPRESA DE ACUEDUCTO Y ALCANTARILLADO DE BOGOTA E.S.P,Area Operativa 11 - Cundinamarca-Amazonas,Bogota,"Bogota, D.C",1975-01-15,,PRECIPITACION,PTPM_TT_M,Precipitación total mensual,Mensual,2003-12-01,88.9,50,,900,49.919857,chirps-v2.0.2003.12.tif
87376,21200230,SAN DIEGO  [21200230],4.616666667,-74.06666667,2700,Pluviométrica,EMPRESA DE ACUEDUCTO Y ALCANTARILLADO DE BOGOTA E.S.P,Area Operativa 11 - Cundinamarca-Amazonas,Bogota,"Bogota, D.C",1945-12-15,,PRECIPITACION,PTPM_TT_M,Precipitación total mensual,Mensual,2003-12-01,56.0,50,,900,63.30165,chirps-v2.0.2003.12.tif
88268,21200400,SAN LUIS 1 Y 2  [21200400],4.633333333,-74.03333333,3000,Pluviográfica,EMPRESA DE ACUEDUCTO Y ALCANTARILLADO DE BOGOTA E.S.P,Area Operativa 11 - Cundinamarca-Amazonas,Bogota,"Bogota, D.C",1936-02-15,,PRECIPITACION,PTPM_TT_M,Precipitación total mensual,Mensual,2003-12-01,97.4,50,,900,66.49085,chirps-v2.0.2003.12.tif
88960,21202070,SAUCEDAL 2  [21202070],4.65,-74.15,2900,Pluviométrica,EMPRESA DE ACUEDUCTO Y ALCANTARILLADO DE BOGOTA E.S.P,Area Operativa 11 - Cundinamarca-Amazonas,Bogota,"Bogota, D.C",1990-04-15,,PRECIPITACION,PTPM_TT_M,Precipitación total mensual,Mensual,2003-12-01,20.7,50,,900,54.581654,chirps-v2.0.2003.12.tif
89256,21201600,SEDE IDEAM KRA 10 [21201600],4.607111111,-74.07288889,2685,Pluviográfica,INSTITUTO DE HIDROLOGIA METEOROLOGIA Y ESTUDIOS AMBIENTALES,Area Operativa 11 - Cundinamarca-Amazonas,Bogota,"Bogota, D.C",1986-09-15,2019-05-03 14:58:00,PRECIPITACION,PTPM_TT_M,Precipitación total mensual,Mensual,2003-12-01,44.5,50,,900,63.30165,chirps-v2.0.2003.12.tif
89603,21202020,SERREZUELA  [21202020],4.766666667,-74.01666667,2800,Pluviográfica,EMPRESA DE ACUEDUCTO Y ALCANTARILLADO DE BOGOTA E.S.P,Area Operativa 11 - Cundinamarca-Amazonas,Bogota,"Bogota, D.C",1989-11-15,,PRECIPITACION,PTPM_TT_M,Precipitación total mensual,Mensual,2003-12-01,109.5,50,,900,53.64214,chirps-v2.0.2003.12.tif
90257,21200520,STA LUCIA  [21200520],4.566666667,-74.11666667,2630,Pluviométrica,EMPRESA DE ACUEDUCTO Y ALCANTARILLADO DE BOGOTA E.S.P,Area Operativa 11 - Cundinamarca-Amazonas,Bogota,"Bogota, D.C",1956-07-15,,PRECIPITACION,PTPM_TT_M,Precipitación total mensual,Mensual,2003-12-01,33.6,4,,900,68.63002,chirps-v2.0.2003.12.tif
90905,21200770,TORCA  [21200770],4.783333333,-74.03333333,2579,Pluviométrica,CORPORACION AUTONOMA REGIONAL DE CUNDINAMARCA,Area Operativa 11 - Cundinamarca-Amazonas,Bogota,"Bogota, D.C",1960-02-15,,PRECIPITACION,PTPM_TT_M,Precipitación total mensual,Mensual,2003-12-01,40.7,50,,900,53.64214,chirps-v2.0.2003.12.tif
92290,21206230,VEGAS LAS HACIENDA [21206230],4.661666667,-74.15141944,2543,Climática Ordinaria,INSTITUTO DE HIDROLOGIA METEOROLOGIA Y ESTUDIOS AMBIENTALES,Area Operativa 11 - Cundinamarca-Amazonas,Bogota,"Bogota, D.C",1987-08-15,2011-05-10 00:00:00,PRECIPITACION,PTPM_TT_M,Precipitación total mensual,Mensual,2003-12-01,28.9,50,,900,54.581654,chirps-v2.0.2003.12.tif
92733,21205580,VENADO ORO VIVERO [21205580],4.598361111,-74.06155556,2725,Climática Ordinaria,INSTITUTO DE HIDROLOGIA METEOROLOGIA Y ESTUDIOS AMBIENTALES,Area Operativa 11 - Cundinamarca-Amazonas,Bogota,"Bogota, D.C",1965-08-15,,PRECIPITACION,PTPM_TT_M,Precipitación total mensual,Mensual,2003-12-01,57.0,50,,900,74.49599,chirps-v2.0.2003.12.tif
93617,21200240,VERJON EL  [21200240],4.583333333,-74.01666667,3250,Pluviométrica,EMPRESA DE ACUEDUCTO Y ALCANTARILLADO DE BOGOTA E.S.P,Area Operativa 11 - Cundinamarca-Amazonas,Bogota,"Bogota, D.C",1946-02-15,,PRECIPITACION,PTPM_TT_M,Precipitación total mensual,Mensual,2003-12-01,136.2,50,,900,67.11934,chirps-v2.0.2003.12.tif
94777,21205240,VITELMA  [21205240],4.566666667,-74.06666667,2682,Climática Ordinaria,EMPRESA DE ACUEDUCTO Y ALCANTARILLADO DE BOGOTA E.S.P,Area Operativa 11 - Cundinamarca-Amazonas,Bogota,"Bogota, D.C",1941-05-15,,PRECIPITACION,PTPM_TT_M,Precipitación total mensual,Mensual,2003-12-01,84.4,50,,900,74.49599,chirps-v2.0.2003.12.tif
95022,35030010,EL CALVARIO [35030010],4.35259,-73.71319,1902,Pluviográfica,INSTITUTO DE HIDROLOGIA METEOROLOGIA Y ESTUDIOS AMBIENTALES,Area Operativa 03 - Meta-Guaviare-Guainía,Meta,El Calvario,1968-10-15,,PRECIPITACION,PTPM_TT_M,Precipitación total mensual,Mensual,2003-12-01,71.2,50,,1200,97.330444,chirps-v2.0.2003.12.tif
95628,35030020,MONFORT [35030020],4.310083333,-73.64802778,1100,Pluviométrica,INSTITUTO DE HIDROLOGIA METEOROLOGIA Y ESTUDIOS AMBIENTALES,Area Operativa 03 - Meta-Guaviare-Guainía,Meta,El Calvario,1968-08-15,,PRECIPITACION,PTPM_TT_M,Precipitación total mensual,Mensual,2003-12-01,187.0,50,,1200,181.68875,chirps-v2.0.2003.12.tif
96368,21185040,AEROPUERTO SANTIAGO VILA [21185040],4.275444444,-74.798,305,Climática Principal,INSTITUTO DE HIDROLOGIA METEOROLOGIA Y ESTUDIOS AMBIENTALES,Area Operativa 10 - Tolima,Tolima,Flandes,1951-01-15,,PRECIPITACION,PTPM_TT_M,Precipitación total mensual,Mensual,2003-12-01,65.9,50,,1200,57.321354,chirps-v2.0.2003.12.tif
97014,21195080,BASE AEREA MELGAR [21195080],4.212222222,-74.63683333,319,Climática Ordinaria,INSTITUTO DE HIDROLOGIA METEOROLOGIA Y ESTUDIOS AMBIENTALES,Area Operativa 10 - Tolima,Tolima,Melgar,1973-03-15,2014-08-28 00:00:00,PRECIPITACION,PTPM_TT_M,Precipitación total mensual,Mensual,2003-12-01,86.0,50,,900,88.12205,chirps-v2.0.2003.12.tif
98729,21170020,DOS AGUAS LAS [21170020],4.258277778,-74.78361111,3394,Pluviométrica,INSTITUTO DE HIDROLOGIA METEOROLOGIA Y ESTUDIOS AMBIENTALES,Area Operativa 10 - Tolima,Tolima,Suárez,1951-01-15,,PRECIPITACION,PTPM_TT_M,Precipitación total mensual,Mensual,2003-12-01,49.0,50,,1200,57.321354,chirps-v2.0.2003.12.tif
99354,23025020,ESPERANZA LA [23025020],5.262638889,-74.72913889,208,Climática Ordinaria,INSTITUTO DE HIDROLOGIA METEOROLOGIA Y ESTUDIOS AMBIENTALES,Area Operativa 10 - Tolima,Tolima,Honda,1970-10-15,2016-01-06 00:00:00,PRECIPITACION,PTPM_TT_M,Precipitación total mensual,Mensual,2003-12-01,134.8,4,,900,116.479485,chirps-v2.0.2003.12.tif
100166,21190300,SALERO EL [21190300],4.234527778,-74.60663889,650,Pluviométrica,INSTITUTO DE HIDROLOGIA METEOROLOGIA Y ESTUDIOS AMBIENTALES,Area Operativa 10 - Tolima,Tolima,Melgar,1971-11-15,2014-08-28 00:00:00,PRECIPITACION,PTPM_TT_M,Precipitación total mensual,Mensual,2003-12-01,127.0,50,,900,88.12205,chirps-v2.0.2003.12.tif
100654,21255080,SALTO EL [21255080],4.78375,-74.76794444,1139,Climática Principal,INSTITUTO DE HIDROLOGIA METEOROLOGIA Y ESTUDIOS AMBIENTALES,Area Operativa 10 - Tolima,Tolima,Ambalema,1968-11-15,,PRECIPITACION,PTPM_TT_M,Precipitación total mensual,Mensual,2003-12-01,75.5,50,,900,47.744583,chirps-v2.0.2003.12.tif
101030,23060260,CHILAGUA FINCA [23060260],5.064638889,-74.38202778,1500,Pluviométrica,INSTITUTO DE HIDROLOGIA METEOROLOGIA Y ESTUDIOS AMBIENTALES,Area Operativa 11 - Cundinamarca-Amazonas,Cundinamarca,Nocaima,1987-12-15,,PRECIPITACION,PTPM_TT_M,Precipitación total mensual,Mensual,2003-12-01,100.1,50,,900,118.78563,chirps-v2.0.2003.12.tif
102714,35020240,CHOACHI  [35020240],4.533333333,-73.93333333,1950,Pluviográfica,EMPRESA DE ACUEDUCTO Y ALCANTARILLADO DE BOGOTA E.S.P,Area Operativa 11 - Cundinamarca-Amazonas,Cundinamarca,Choachí,1947-08-15,,PRECIPITACION,PTPM_TT_M,Precipitación total mensual,Mensual,2003-12-01,54.9,50,,900,67.95917,chirps-v2.0.2003.12.tif
103067,35020280,CHOACHI [35020280],4.522916667,-73.92658333,1950,Pluviométrica,INSTITUTO DE HIDROLOGIA METEOROLOGIA Y ESTUDIOS AMBIENTALES,Area Operativa 11 - Cundinamarca-Amazonas,Cundinamarca,Choachí,1981-11-15,,PRECIPITACION,PTPM_TT_M,Precipitación total mensual,Mensual,2003-12-01,35.5,50,,900,67.95917,chirps-v2.0.2003.12.tif
104199,35060210,CLARAVAL AUT [35060210],4.65025,-73.64144444,2100,Climática Principal,INSTITUTO DE HIDROLOGIA METEOROLOGIA Y ESTUDIOS AMBIENTALES,Area Operativa 11 - Cundinamarca-Amazonas,Cundinamarca,Junín,1972-02-15,,PRECIPITACION,PTPM_TT_M,Precipitación total mensual,Mensual,2003-12-01,45.4,50,,900,92.5774,chirps-v2.0.2003.12.tif
105040,21201070,CORAZON EL [21201070],4.865361111,-74.28941667,2845,Pluviométrica,INSTITUTO DE HIDROLOGIA METEOROLOGIA Y ESTUDIOS AMBIENTALES,Area Operativa 11 - Cundinamarca-Amazonas,Cundinamarca,Facatativá,1974-07-15,,PRECIPITACION,PTPM_TT_M,Precipitación total mensual,Mensual,2003-12-01,87.5,50,,900,93.140594,chirps-v2.0.2003.12.tif
105606,35030120,CUCHILLA GOLILLAS  [35030120],4.566666667,-73.73333333,3350,Pluviométrica,EMPRESA DE ACUEDUCTO Y ALCANTARILLADO DE BOGOTA E.S.P,Area Operativa 11 - Cundinamarca-Amazonas,Cundinamarca,Fómeque,1969-08-15,,PRECIPITACION,PTPM_TT_M,Precipitación total mensual,Mensual,2003-12-01,35.7,50,,900,74.50656,chirps-v2.0.2003.12.tif
106235,24010140,CUCUNUBA [24010140],5.21957,-73.78229,2818,Pluviométrica,INSTITUTO DE HIDROLOGIA METEOROLOGIA Y ESTUDIOS AMBIENTALES,Area Operativa 11 - Cundinamarca-Amazonas,Cundinamarca,Cucunubá,1958-01-15,2019-11-13 11:27:00,PRECIPITACION,PTPM_TT_M,Precipitación total mensual,Mensual,2003-12-01,73.4,50,,900,39.330025,chirps-v2.0.2003.12.tif
106622,24011080,CUCUNUBA1 [24011080],5.25,-73.77,3,Pluviométrica,INSTITUTO DE HIDROLOGIA METEOROLOGIA Y ESTUDIOS AMBIENTALES,Area Operativa 11 - Cundinamarca-Amazonas,Cundinamarca,Cucunubá,1987-05-15,,PRECIPITACION,PTPM_TT_M,Precipitación total mensual,Mensual,2003-12-01,33.0,50,,900,44.68731,chirps-v2.0.2003.12.tif
107282,35040010,EL RETIRO [35040010],4.338722222,-73.54652778,870,Pluviométrica,INSTITUTO DE HIDROLOGIA METEOROLOGIA Y ESTUDIOS AMBIENTALES,Area Operativa 03 - Meta-Guaviare-Guainía,Cundinamarca,Medina,1968-08-15,,PRECIPITACION,PTPM_TT_M,Precipitación total mensual,Mensual,2003-12-01,540.0,50,,1200,228.47246,chirps-v2.0.2003.12.tif
109816,35060100,ESCUELA TENA [35060100],4.712694444,-73.52069444,1650,Pluviográfica,INSTITUTO DE HIDROLOGIA METEOROLOGIA Y ESTUDIOS AMBIENTALES,Area Operativa 11 - Cundinamarca-Amazonas,Cundinamarca,Gachalá,1972-08-15,,PRECIPITACION,PTPM_TT_M,Precipitación total mensual,Mensual,2003-12-01,49.1,50,,900,96.81453,chirps-v2.0.2003.12.tif
110397,21201140,ESPERANZA LA [21201140],4.802166667,-74.17997222,2555,Pluviométrica,INSTITUTO DE HIDROLOGIA METEOROLOGIA Y ESTUDIOS AMBIENTALES,Area Operativa 11 - Cundinamarca-Amazonas,Cundinamarca,Tenjo,1974-07-15,,PRECIPITACION,PTPM_TT_M,Precipitación total mensual,Mensual,2003-12-01,7.7,50,,900,64.71607,chirps-v2.0.2003.12.tif
112164,21205670,FLORIDA LA AUT [21205670],4.770888889,-74.43763889,1915,Climática Principal,INSTITUTO DE HIDROLOGIA METEOROLOGIA Y ESTUDIOS AMBIENTALES,Area Operativa 11 - Cundinamarca-Amazonas,Cundinamarca,Anolaima,1970-11-15,,PRECIPITACION,PTPM_TT_M,Precipitación total mensual,Mensual,2003-12-01,73.2,50,,900,97.25726,chirps-v2.0.2003.12.tif
112643,35020290,FOMEQUE [35020290],4.486527778,-73.89041667,1900,Pluviométrica,INSTITUTO DE HIDROLOGIA METEOROLOGIA Y ESTUDIOS AMBIENTALES,Area Operativa 11 - Cundinamarca-Amazonas,Cundinamarca,Fómeque,1981-11-15,,PRECIPITACION,PTPM_TT_M,Precipitación total mensual,Mensual,2003-12-01,35.8,50,,900,78.50016,chirps-v2.0.2003.12.tif
113322,21201660,FUTE  [21201660],4.6,-74.28333333,2607,Pluviográfica,CORPORACION AUTONOMA REGIONAL DE CUNDINAMARCA,Area Operativa 11 - Cundinamarca-Amazonas,Cundinamarca,Soacha,1959-09-15,,PRECIPITACION,PTPM_TT_M,Precipitación total mensual,Mensual,2003-12-01,44.6,50,,900,78.31176,chirps-v2.0.2003.12.tif
113898,35060090,GACHALA [35060090],4.690527778,-73.52291667,1733,Pluviométrica,INSTITUTO DE HIDROLOGIA METEOROLOGIA Y ESTUDIOS AMBIENTALES,Area Operativa 11 - Cundinamarca-Amazonas,Cundinamarca,Gachalá,1962-04-15,,PRECIPITACION,PTPM_TT_M,Precipitación total mensual,Mensual,2003-12-01,55.9,50,,900,90.12221,chirps-v2.0.2003.12.tif
114743,35065010,GACHETA [35065010],4.830388889,-73.64647222,1752,Climática Ordinaria,INSTITUTO DE HIDROLOGIA METEOROLOGIA Y ESTUDIOS AMBIENTALES,Area Operativa 11 - Cundinamarca-Amazonas,Cundinamarca,Gachetá,1972-09-15,,PRECIPITACION,PTPM_TT_M,Precipitación total mensual,Mensual,2003-12-01,98.6,50,,900,86.16083,chirps-v2.0.2003.12.tif
115954,35030250,GUADUAL EL  [35030250],4.4,-73.68333333,3300,Pluviométrica,EMPRESA DE ACUEDUCTO Y ALCANTARILLADO DE BOGOTA E.S.P,Area Operativa 11 - Cundinamarca-Amazonas,Cundinamarca,Fómeque,1990-08-15,,PRECIPITACION,PTPM_TT_M,Precipitación total mensual,Mensual,2003-12-01,55.0,50,,900,122.44673,chirps-v2.0.2003.12.tif
116720,21201180,GUANQUICA [21201180],5.184277778,-73.941111111,3,Pluviométrica,INSTITUTO DE HIDROLOGIA METEOROLOGIA Y ESTUDIOS AMBIENTALES,Area Operativa 11 - Cundinamarca-Amazonas,Cundinamarca,Tausa,1954-12-15,,PRECIPITACION,PTPM_TT_M,Precipitación total mensual,Mensual,2003-12-01,48.5,50,,900,44.417,chirps-v2.0.2003.12.tif
117473,21200600,GUARANI EL PENON  [21200600],4.433333333,-74.3,2800,Pluviográfica,CORPORACION AUTONOMA REGIONAL DE CUNDINAMARCA,Area Operativa 11 - Cundinamarca-Amazonas,Cundinamarca,Sibaté,1959-09-15,,PRECIPITACION,PTPM_TT_M,Precipitación total mensual,Mensual,2003-12-01,50.0,50,,900,69.25025,chirps-v2.0.2003.12.tif
117894,21205700,GUASCA [21205700],4.879861111,-73.86811111,2750,Climática Ordinaria,INSTITUTO DE HIDROLOGIA METEOROLOGIA Y ESTUDIOS AMBIENTALES,Area Operativa 11 - Cundinamarca-Amazonas,Cundinamarca,Guasca,1974-07-15,,PRECIPITACION,PTPM_TT_M,Precipitación total mensual,Mensual,2003-12-01,97.0,50,,900,60.468082,chirps-v2.0.2003.12.tif
118343,35020300,GUTIERREZ [35020300],4.253916667,-74.00269444,2300,Climática Principal,INSTITUTO DE HIDROLOGIA METEOROLOGIA Y ESTUDIOS AMBIENTALES,Area Operativa 11 - Cundinamarca-Amazonas,Cundinamarca,Gutiérrez,1984-07-15,,PRECIPITACION,PTPM_TT_M,Precipitación total mensual,Mensual,2003-12-01,77.6,50,,900,69.32215,chirps-v2.0.2003.12.tif
120943,21201210,HATO EL [21201210],4.866388889,-74.15386111,2575,Pluviométrica,INSTITUTO DE HIDROLOGIA METEOROLOGIA Y ESTUDIOS AMBIENTALES,Area Operativa 11 - Cundinamarca-Amazonas,Cundinamarca,Tenjo,1978-06-15,,PRECIPITACION,PTPM_TT_M,Precipitación total mensual,Mensual,2003-12-01,54.3,50,,900,73.64711,chirps-v2.0.2003.12.tif
121734,21202160,HIDROPARAISO [21202160],4.5745,-74.407388889,1685,Pluviométrica,INSTITUTO DE HIDROLOGIA METEOROLOGIA Y ESTUDIOS AMBIENTALES,Area Operativa 11 - Cundinamarca-Amazonas,Cundinamarca,El Colegio,1999-01-15,,PRECIPITACION,PTPM_TT_M,Precipitación total mensual,Mensual,2003-12-01,54.0,50,,900,74.590965,chirps-v2.0.2003.12.tif
122115,21206160,HIDROPARAISO [21206160],4.573166667,-74.40483333,1600,Climática Principal,INSTITUTO DE HIDROLOGIA METEOROLOGIA Y ESTUDIOS AMBIENTALES,Area Operativa 11 - Cundinamarca-Amazonas,Cundinamarca,El Colegio,1984-04-15,1998-12-15 00:00:00,PRECIPITACION,PTPM_TT_M,Precipitación total mensual,Mensual,2003-12-01,54.0,50,,900,74.590965,chirps-v2.0.2003.12.tif
122361,21202110,HUERTAS LAS  [21202110],4.583333333,-74.23333333,2572,Pluviográfica,EMPRESA DE ACUEDUCTO Y ALCANTARILLADO DE BOGOTA E.S.P,Area Operativa 11 - Cundinamarca-Amazonas,Cundinamarca,Soacha,1968-11-15,,PRECIPITACION,PTPM_TT_M,Precipitación total mensual,Mensual,2003-12-01,24.8,50,,900,72.46981,chirps-v2.0.2003.12.tif
122754,21201410,ACANDY  [21201410],5.05,-73.88333333,2600,Pluviométrica,CORPORACION AUTONOMA REGIONAL DE CUNDINAMARCA,Area Operativa 11 - Cundinamarca-Amazonas,Cundinamarca,Nemocón,1977-10-15,,PRECIPITACION,PTPM_TT_M,Precipitación total mensual,Mensual,2003-12-01,25.0,50,,900,54.732,chirps-v2.0.2003.12.tif
