,CodigoEstacion,NombreEstacion,Latitud,Longitud,Altitud,Categoria,Entidad,AreaOperativa,Departamento,Municipio,FechaInstalacion,FechaSuspension,IdParametro,Etiqueta,DescripcionSerie,Frecuencia,Fecha,Valor,Grado,Calificador,NivelAprobacion,SatValue,SatDesc
55,35030110,ALTO DEL GORRO  [35030110],4.483333333,-73.73333333,3750,Pluviométrica,EMPRESA DE ACUEDUCTO Y ALCANTARILLADO DE BOGOTA E.S.P,Area Operativa 11 - Cundinamarca-Amazonas,Cundinamarca,Fómeque,1969-11-15,,PRECIPITACION,PTPM_TT_M,Precipitación total mensual,Mensual,1991-01-01,10.1,4,,900,20.176245,chirps-v2.0.1991.01.tif
769,35060200,AMOLADERO EL [35060200],4.857972222,-73.74538889,2963,Pluviométrica,INSTITUTO DE HIDROLOGIA METEOROLOGIA Y ESTUDIOS AMBIENTALES,Area Operativa 11 - Cundinamarca-Amazonas,Cundinamarca,Guatavita,1972-04-15,,PRECIPITACION,PTPM_TT_M,Precipitación total mensual,Mensual,1991-01-01,5.4,50,,900,21.335285,chirps-v2.0.1991.01.tif
1173,21201790,ARGENTINA  [21201790],4.75,-74.51666667,1150,Pluviográfica,CORPORACION AUTONOMA REGIONAL DE CUNDINAMARCA,Area Operativa 10 - Tolima,Cundinamarca,Quipile,1989-04-15,,PRECIPITACION,PTPM_TT_M,Precipitación total mensual,Mensual,1991-01-01,0.0,50,,900,60.743546,chirps-v2.0.1991.01.tif
1552,21230090,ARRANCAPLUMAS [21230090],5.20275,-74.72927778,235,Pluviométrica,INSTITUTO DE HIDROLOGIA METEOROLOGIA Y ESTUDIOS AMBIENTALES,Area Operativa 10 - Tolima,Cundinamarca,Guaduas,1980-04-15,,PRECIPITACION,PTPM_TT_M,Precipitación total mensual,Mensual,1991-01-01,0.0,50,,1200,53.969223,chirps-v2.0.1991.01.tif
2416,21205770,BASE AEREA MADRID [21205770],4.728805556,-74.2725,2550,Climática Ordinaria,INSTITUTO DE HIDROLOGIA METEOROLOGIA Y ESTUDIOS AMBIENTALES,Area Operativa 11 - Cundinamarca-Amazonas,Cundinamarca,Madrid,1974-07-15,,PRECIPITACION,PTPM_TT_M,Precipitación total mensual,Mensual,1991-01-01,2.7,4,,900,27.304695,chirps-v2.0.1991.01.tif
3102,21230120,BELLEZA LA [21230120],4.985388889,-74.58111111,1200,Pluviométrica,INSTITUTO DE HIDROLOGIA METEOROLOGIA Y ESTUDIOS AMBIENTALES,Area Operativa 11 - Cundinamarca-Amazonas,Cundinamarca,Chaguaní,1986-12-15,,PRECIPITACION,PTPM_TT_M,Precipitación total mensual,Mensual,1991-01-01,3.8,4,,900,46.750954,chirps-v2.0.1991.01.tif
4083,23060060,ICALI  [23060060],4.95,-74.41666667,1380,Pluviométrica,FEDERACION NACIONAL DE CAFETEROS,Area Operativa 11 - Cundinamarca-Amazonas,Cundinamarca,Sasaima,1965-03-15,,PRECIPITACION,PTPM_TT_M,Precipitación total mensual,Mensual,1991-01-01,0.0,50,,900,67.023605,chirps-v2.0.1991.01.tif
4780,21235010,JERUSALEN [21235010],4.561805556,-74.70238889,297,Climática Ordinaria,INSTITUTO DE HIDROLOGIA METEOROLOGIA Y ESTUDIOS AMBIENTALES,Area Operativa 10 - Tolima,Cundinamarca,Jerusalén,1974-11-15,,PRECIPITACION,PTPM_TT_M,Precipitación total mensual,Mensual,1991-01-01,30.5,50,,1200,35.96569,chirps-v2.0.1991.01.tif
5507,35060050,JUNIN [35060050],4.792222222,-73.66872222,2323,Pluviométrica,INSTITUTO DE HIDROLOGIA METEOROLOGIA Y ESTUDIOS AMBIENTALES,Area Operativa 11 - Cundinamarca-Amazonas,Cundinamarca,Junín,1962-05-15,,PRECIPITACION,PTPM_TT_M,Precipitación total mensual,Mensual,1991-01-01,0.0,50,,900,26.296017,chirps-v2.0.1991.01.tif
6252,24015110,LA BOYERA - AUT [24015110],5.303805556,-73.85175,2610,Climática Principal,INSTITUTO DE HIDROLOGIA METEOROLOGIA Y ESTUDIOS AMBIENTALES,Area Operativa 11 - Cundinamarca-Amazonas,Cundinamarca,Ubaté,1960-03-15,,PRECIPITACION,PTPM_TT_M,Precipitación total mensual,Mensual,1991-01-01,7.0,50,,900,14.328419,chirps-v2.0.1991.01.tif
6412,21205910,LA COSECHA - AUT [21205910],4.98922,-74.00119,2570,Climática Principal,INSTITUTO DE HIDROLOGIA METEOROLOGIA Y ESTUDIOS AMBIENTALES,Area Operativa 11 - Cundinamarca-Amazonas,Cundinamarca,Zipaquirá,1976-09-15,,PRECIPITACION,PTPM_TT_M,Precipitación total mensual,Mensual,1991-01-01,3.2,50,,900,22.180164,chirps-v2.0.1991.01.tif
6889,21201840,LAG DEL INDIO  [21201840],4.4,-74.46666667,2050,Pluviométrica,CORPORACION AUTONOMA REGIONAL DE CUNDINAMARCA,Area Operativa 10 - Tolima,Cundinamarca,Viotá,1989-04-15,,PRECIPITACION,PTPM_TT_M,Precipitación total mensual,Mensual,1991-01-01,0.0,50,,900,72.907936,chirps-v2.0.1991.01.tif
7462,35030160,LAGUNA CHINGAZA  [35030160],4.533333333,-73.75,3250,Pluviométrica,EMPRESA DE ACUEDUCTO Y ALCANTARILLADO DE BOGOTA E.S.P,Area Operativa 11 - Cundinamarca-Amazonas,Cundinamarca,Fómeque,1966-03-15,,PRECIPITACION,PTPM_TT_M,Precipitación total mensual,Mensual,1991-01-01,17.4,4,,900,17.03273,chirps-v2.0.1991.01.tif
7771,35020380,LAGUNA MARRANOS  [35020380],4.65,-73.83333333,3090,Pluviométrica,EMPRESA DE ACUEDUCTO Y ALCANTARILLADO DE BOGOTA E.S.P,Area Operativa 11 - Cundinamarca-Amazonas,Cundinamarca,La Calera,1979-08-15,,PRECIPITACION,PTPM_TT_M,Precipitación total mensual,Mensual,1991-01-01,25.2,4,,900,21.215504,chirps-v2.0.1991.01.tif
8010,35030180,LAGUNA SECA  [35030180],4.666666667,-73.76666667,3620,Pluviométrica,EMPRESA DE ACUEDUCTO Y ALCANTARILLADO DE BOGOTA E.S.P,Area Operativa 11 - Cundinamarca-Amazonas,Cundinamarca,Fómeque,1987-04-15,,PRECIPITACION,PTPM_TT_M,Precipitación total mensual,Mensual,1991-01-01,19.6,4,,900,15.254496,chirps-v2.0.1991.01.tif
8273,21201190,LAGUNITAS [21201190],5.214527778,-73.90725,3100,Pluviométrica,INSTITUTO DE HIDROLOGIA METEOROLOGIA Y ESTUDIOS AMBIENTALES,Area Operativa 11 - Cundinamarca-Amazonas,Cundinamarca,Tausa,1985-03-15,,PRECIPITACION,PTPM_TT_M,Precipitación total mensual,Mensual,1991-01-01,0.0,50,,900,12.282963,chirps-v2.0.1991.01.tif
8711,35030080,LAS CASAS [35030080],4.441166667,-73.93638889,2100,Pluviográfica,INSTITUTO DE HIDROLOGIA METEOROLOGIA Y ESTUDIOS AMBIENTALES,Area Operativa 11 - Cundinamarca-Amazonas,Cundinamarca,Cáqueza,1986-05-15,,PRECIPITACION,PTPM_TT_M,Precipitación total mensual,Mensual,1991-01-01,0.0,50,,900,17.95812,chirps-v2.0.1991.01.tif
9288,24010070,LETICIA [24010070],5.303194444,-73.70975,2650,Pluviométrica,INSTITUTO DE HIDROLOGIA METEOROLOGIA Y ESTUDIOS AMBIENTALES,Area Operativa 11 - Cundinamarca-Amazonas,Cundinamarca,Lenguazaque,1974-02-15,,PRECIPITACION,PTPM_TT_M,Precipitación total mensual,Mensual,1991-01-01,17.8,50,,900,13.270922,chirps-v2.0.1991.01.tif
9742,35025050,LLANO LARGO [35025050],4.482833333,-74.03027778,2980,Climática Ordinaria,INSTITUTO DE HIDROLOGIA METEOROLOGIA Y ESTUDIOS AMBIENTALES,Area Operativa 11 - Cundinamarca-Amazonas,Cundinamarca,Ubaque,1986-04-15,,PRECIPITACION,PTPM_TT_M,Precipitación total mensual,Mensual,1991-01-01,0.0,4,,900,21.49477,chirps-v2.0.1991.01.tif
10294,21201050,LOURDES [21201050],4.982888889,-73.86466667,2750,Pluviométrica,INSTITUTO DE HIDROLOGIA METEOROLOGIA Y ESTUDIOS AMBIENTALES,Area Operativa 11 - Cundinamarca-Amazonas,Cundinamarca,Gachancipá,1985-03-15,,PRECIPITACION,PTPM_TT_M,Precipitación total mensual,Mensual,1991-01-01,19.6,50,,900,21.676014,chirps-v2.0.1991.01.tif
10794,35070230,MACHETA GRANJA AGROP [35070230],5.075111111,-73.57941667,1815,Pluviográfica,INSTITUTO DE HIDROLOGIA METEOROLOGIA Y ESTUDIOS AMBIENTALES,Area Operativa 11 - Cundinamarca-Amazonas,Cundinamarca,Machetá,1979-12-15,,PRECIPITACION,PTPM_TT_M,Precipitación total mensual,Mensual,1991-01-01,2.3,50,,900,10.287931,chirps-v2.0.1991.01.tif
12048,21205660,MERCEDES - AUT [21205660],4.5791,-74.52318,765,Climática Principal,INSTITUTO DE HIDROLOGIA METEOROLOGIA Y ESTUDIOS AMBIENTALES,Area Operativa 11 - Cundinamarca-Amazonas,Cundinamarca,Anapoima,1970-09-15,,PRECIPITACION,PTPM_TT_M,Precipitación total mensual,Mensual,1991-01-01,79.3,50,,900,56.246162,chirps-v2.0.1991.01.tif
13098,35060130,MINAS LAS [35060130],4.675166667,-73.48213889,23,Pluviométrica,INSTITUTO DE HIDROLOGIA METEOROLOGIA Y ESTUDIOS AMBIENTALES,Area Operativa 11 - Cundinamarca-Amazonas,Cundinamarca,Gachalá,1973-04-15,,PRECIPITACION,PTPM_TT_M,Precipitación total mensual,Mensual,1991-01-01,9.0,50,,900,18.58854,chirps-v2.0.1991.01.tif
13704,21206070,MISIONES  [21206070],4.566666667,-74.3,1540,Climática Ordinaria,FEDERACION NACIONAL DE CAFETEROS,Area Operativa 11 - Cundinamarca-Amazonas,Cundinamarca,El Colegio,1977-02-15,,PRECIPITACION,PTPM_TT_M,Precipitación total mensual,Mensual,1991-01-01,0.0,50,,900,32.91049,chirps-v2.0.1991.01.tif
14153,35020010,MONTERREDONDO [35020010],4.2483,-73.8187,1467,Pluviométrica,INSTITUTO DE HIDROLOGIA METEOROLOGIA Y ESTUDIOS AMBIENTALES,Area Operativa 03 - Meta-Guaviare-Guainía,Cundinamarca,Guayabetal,1951-07-15,,PRECIPITACION,PTPM_TT_M,Precipitación total mensual,Mensual,1991-01-01,4.0,50,,1200,23.432592,chirps-v2.0.1991.01.tif
14818,21205610,MUNA  [21205610],4.55,-74.25,2565,Climática Principal,CORPORACION AUTONOMA REGIONAL DE CUNDINAMARCA,Area Operativa 11 - Cundinamarca-Amazonas,Cundinamarca,Sibaté,1966-07-15,,PRECIPITACION,PTPM_TT_M,Precipitación total mensual,Mensual,1991-01-01,0.6,50,,900,29.880688,chirps-v2.0.1991.01.tif
15082,35020390,MUNDONUEVO  [35020390],4.683333333,-73.86666667,2400,Pluviométrica,EMPRESA DE ACUEDUCTO Y ALCANTARILLADO DE BOGOTA E.S.P,Area Operativa 11 - Cundinamarca-Amazonas,Cundinamarca,La Calera,1971-01-15,,PRECIPITACION,PTPM_TT_M,Precipitación total mensual,Mensual,1991-01-01,20.4,50,,900,27.51223,chirps-v2.0.1991.01.tif
15449,21230110,NARINO RADIO [21230110],4.387805556,-74.838166667,262,Pluviométrica,INSTITUTO DE HIDROLOGIA METEOROLOGIA Y ESTUDIOS AMBIENTALES,Area Operativa 10 - Tolima,Cundinamarca,Nariño,1980-01-15,,PRECIPITACION,PTPM_TT_M,Precipitación total mensual,Mensual,1991-01-01,1.0,50,,900,31.409155,chirps-v2.0.1991.01.tif
16020,21230060,NARINO [21230060],4.398611111,-74.82555556,289,Pluviométrica,INSTITUTO DE HIDROLOGIA METEOROLOGIA Y ESTUDIOS AMBIENTALES,Area Operativa 10 - Tolima,Cundinamarca,Nariño,1974-11-15,,PRECIPITACION,PTPM_TT_M,Precipitación total mensual,Mensual,1991-01-01,11.8,50,,1200,31.409155,chirps-v2.0.1991.01.tif
16620,21190210,NILO [21190210],4.305888889,-74.64866667,322,Pluviométrica,INSTITUTO DE HIDROLOGIA METEOROLOGIA Y ESTUDIOS AMBIENTALES,Area Operativa 10 - Tolima,Cundinamarca,Nilo,1971-11-15,,PRECIPITACION,PTPM_TT_M,Precipitación total mensual,Mensual,1991-01-01,65.0,50,,1200,60.271797,chirps-v2.0.1991.01.tif
17591,21200160,PANONIA [21200160],5.057972222,-73.73433333,2800,Pluviométrica,INSTITUTO DE HIDROLOGIA METEOROLOGIA Y ESTUDIOS AMBIENTALES,Area Operativa 11 - Cundinamarca-Amazonas,Cundinamarca,Chocontá,1985-03-15,,PRECIPITACION,PTPM_TT_M,Precipitación total mensual,Mensual,1991-01-01,31.7,50,,900,12.132885,chirps-v2.0.1991.01.tif
18532,21201060,PANTANO REDONDO 1 [21201060],5.04325,-74.03338889,3160,Pluviográfica,INSTITUTO DE HIDROLOGIA METEOROLOGIA Y ESTUDIOS AMBIENTALES,Area Operativa 11 - Cundinamarca-Amazonas,Cundinamarca,Zipaquirá,1951-01-15,,PRECIPITACION,PTPM_TT_M,Precipitación total mensual,Mensual,1991-01-01,8.0,50,,900,19.10387,chirps-v2.0.1991.01.tif
19388,21200380,PANTANO REDONDO 2  [21200380],5.033333333,-74.03333333,3000,Pluviográfica,ESTACIONES PARTICULARES,Area Operativa 11 - Cundinamarca-Amazonas,Cundinamarca,Zipaquirá,1950-08-15,,PRECIPITACION,PTPM_TT_M,Precipitación total mensual,Mensual,1991-01-01,0.0,50,,900,19.10387,chirps-v2.0.1991.01.tif
19933,35030230,PARRADOS SAN ISIDR  [35030230],4.383333333,-73.76666667,3500,Pluviométrica,EMPRESA DE ACUEDUCTO Y ALCANTARILLADO DE BOGOTA E.S.P,Area Operativa 11 - Cundinamarca-Amazonas,Cundinamarca,Fómeque,1987-05-15,,PRECIPITACION,PTPM_TT_M,Precipitación total mensual,Mensual,1991-01-01,18.7,50,,900,14.088215,chirps-v2.0.1991.01.tif
20432,21195190,PASCA - AUT [21195190],4.310111111,-74.31175,2256,Agrometeorológica,INSTITUTO DE HIDROLOGIA METEOROLOGIA Y ESTUDIOS AMBIENTALES,Area Operativa 11 - Cundinamarca-Amazonas,Cundinamarca,Pasca,2005-08-26,,PRECIPITACION,PTPM_TT_M,Precipitación total mensual,Mensual,1991-01-01,17.0,50,,900,34.844856,chirps-v2.0.1991.01.tif
21298,23060180,PENON EL [23060180],5.253444444,-74.2945,1400,Pluviométrica,INSTITUTO DE HIDROLOGIA METEOROLOGIA Y ESTUDIOS AMBIENTALES,Area Operativa 11 - Cundinamarca-Amazonas,Cundinamarca,El Peñón,1974-09-15,,PRECIPITACION,PTPM_TT_M,Precipitación total mensual,Mensual,1991-01-01,49.9,50,,900,80.18003,chirps-v2.0.1991.01.tif
21790,21190060,PINAR DEL RIO  [21190060],4.366666667,-74.35,1750,Pluviométrica,FEDERACION NACIONAL DE CAFETEROS,Area Operativa 11 - Cundinamarca-Amazonas,Cundinamarca,Silvania,1982-01-15,,PRECIPITACION,PTPM_TT_M,Precipitación total mensual,Mensual,1991-01-01,0.0,50,,900,64.748215,chirps-v2.0.1991.01.tif
21963,21190310,PINAR EL [21190310],4.387972222,-74.32991667,1900,Pluviométrica,INSTITUTO DE HIDROLOGIA METEOROLOGIA Y ESTUDIOS AMBIENTALES,Area Operativa 11 - Cundinamarca-Amazonas,Cundinamarca,Fusagasugá,1980-08-15,,PRECIPITACION,PTPM_TT_M,Precipitación total mensual,Mensual,1991-01-01,82.5,50,,900,22.847015,chirps-v2.0.1991.01.tif
22952,21200620,PISCIS [21200620],5.079166667,-73.69686111,2820,Pluviométrica,INSTITUTO DE HIDROLOGIA METEOROLOGIA Y ESTUDIOS AMBIENTALES,Area Operativa 11 - Cundinamarca-Amazonas,Cundinamarca,Chocontá,1985-03-15,,PRECIPITACION,PTPM_TT_M,Precipitación total mensual,Mensual,1991-01-01,7.6,50,,900,12.410167,chirps-v2.0.1991.01.tif
23416,35030170,PLAYA LA  [35030170],4.55,-73.76666667,3100,Pluviométrica,EMPRESA DE ACUEDUCTO Y ALCANTARILLADO DE BOGOTA E.S.P,Area Operativa 11 - Cundinamarca-Amazonas,Cundinamarca,Fómeque,1966-03-15,,PRECIPITACION,PTPM_TT_M,Precipitación total mensual,Mensual,1991-01-01,30.5,4,,900,17.449205,chirps-v2.0.1991.01.tif
24097,35060160,POTRERITOS [35060160],4.828805556,-73.76927778,2802,Pluviométrica,INSTITUTO DE HIDROLOGIA METEOROLOGIA Y ESTUDIOS AMBIENTALES,Area Operativa 11 - Cundinamarca-Amazonas,Cundinamarca,Guatavita,1972-08-15,,PRECIPITACION,PTPM_TT_M,Precipitación total mensual,Mensual,1991-01-01,16.8,50,,900,27.020979,chirps-v2.0.1991.01.tif
24536,21200780,POTRERO LARGO [21200780],4.929222222,-73.78047222,2780,Pluviométrica,INSTITUTO DE HIDROLOGIA METEOROLOGIA Y ESTUDIOS AMBIENTALES,Area Operativa 11 - Cundinamarca-Amazonas,Cundinamarca,Guatavita,1985-03-15,,PRECIPITACION,PTPM_TT_M,Precipitación total mensual,Mensual,1991-01-01,68.1,50,,900,18.090456,chirps-v2.0.1991.01.tif
25397,21201310,PREVENTORIO INFANT [21201310],4.465444444,-74.2675,2650,Pluviométrica,INSTITUTO DE HIDROLOGIA METEOROLOGIA Y ESTUDIOS AMBIENTALES,Area Operativa 11 - Cundinamarca-Amazonas,Cundinamarca,Sibaté,1985-03-15,,PRECIPITACION,PTPM_TT_M,Precipitación total mensual,Mensual,1991-01-01,19.3,50,,900,31.681145,chirps-v2.0.1991.01.tif
25808,21206180,PRIMAVERA D MATIMA [21206180],4.8055,-74.44347222,1850,Climática Ordinaria,INSTITUTO DE HIDROLOGIA METEOROLOGIA Y ESTUDIOS AMBIENTALES,Area Operativa 11 - Cundinamarca-Amazonas,Cundinamarca,Anolaima,1986-04-15,,PRECIPITACION,PTPM_TT_M,Precipitación total mensual,Mensual,1991-01-01,42.6,50,,900,65.90248,chirps-v2.0.1991.01.tif
26492,21205570,PRIMAVERA LA  [21205570],4.85,-74.21666667,2590,Climática Principal,CORPORACION AUTONOMA REGIONAL DE CUNDINAMARCA,Area Operativa 11 - Cundinamarca-Amazonas,Cundinamarca,Subachoque,1965-06-15,,PRECIPITACION,PTPM_TT_M,Precipitación total mensual,Mensual,1991-01-01,16.5,50,,900,30.598375,chirps-v2.0.1991.01.tif
26685,21205980,PROVIDENCIA GRANJA [21205980],4.792388889,-74.20091667,2560,Climática Ordinaria,INSTITUTO DE HIDROLOGIA METEOROLOGIA Y ESTUDIOS AMBIENTALES,Area Operativa 11 - Cundinamarca-Amazonas,Cundinamarca,Tenjo,1977-02-15,,PRECIPITACION,PTPM_TT_M,Precipitación total mensual,Mensual,1991-01-01,21.5,50,,900,30.32317,chirps-v2.0.1991.01.tif
27401,24010380,PTE EL  [24010380],5.35,-73.66666667,2810,Pluviográfica,CORPORACION AUTONOMA REGIONAL DE CUNDINAMARCA,Area Operativa 11 - Cundinamarca-Amazonas,Cundinamarca,Guachetá,1962-12-15,,PRECIPITACION,PTPM_TT_M,Precipitación total mensual,Mensual,1991-01-01,0.0,50,,900,14.567157,chirps-v2.0.1991.01.tif
28281,21205160,RAMADA LA  [21205160],4.716666667,-74.18333333,2545,Climática Ordinaria,CORPORACION AUTONOMA REGIONAL DE CUNDINAMARCA,Area Operativa 11 - Cundinamarca-Amazonas,Cundinamarca,Funza,1937-12-15,,PRECIPITACION,PTPM_TT_M,Precipitación total mensual,Mensual,1991-01-01,11.8,50,,900,24.80463,chirps-v2.0.1991.01.tif
28964,21205410,REPRESA DEL NEUSA  [21205410],5.15,-73.98333333,3100,Climática Principal,CORPORACION AUTONOMA REGIONAL DE CUNDINAMARCA,Area Operativa 11 - Cundinamarca-Amazonas,Cundinamarca,Cogua,1947-05-15,,PRECIPITACION,PTPM_TT_M,Precipitación total mensual,Mensual,1991-01-01,4.5,50,,900,14.838299,chirps-v2.0.1991.01.tif
29316,21201710,REPRESA SISGA  [21201710],5.083333333,-73.73333333,2675,Pluviográfica,CORPORACION AUTONOMA REGIONAL DE CUNDINAMARCA,Area Operativa 11 - Cundinamarca-Amazonas,Cundinamarca,Chocontá,1966-07-15,,PRECIPITACION,PTPM_TT_M,Precipitación total mensual,Mensual,1991-01-01,26.0,50,,900,12.132885,chirps-v2.0.1991.01.tif
29960,21205390,REPRESA SISGA  [21205390],5.083333333,-73.73333333,2675,Climática Ordinaria,CORPORACION AUTONOMA REGIONAL DE CUNDINAMARCA,Area Operativa 11 - Cundinamarca-Amazonas,Cundinamarca,Chocontá,1939-11-15,,PRECIPITACION,PTPM_TT_M,Precipitación total mensual,Mensual,1991-01-01,26.7,50,,900,12.132885,chirps-v2.0.1991.01.tif
30295,21201550,ROBLE EL [21201550],4.796666667,-74.22638889,2560,Pluviométrica,INSTITUTO DE HIDROLOGIA METEOROLOGIA Y ESTUDIOS AMBIENTALES,Area Operativa 11 - Cundinamarca-Amazonas,Cundinamarca,Madrid,1985-07-15,,PRECIPITACION,PTPM_TT_M,Precipitación total mensual,Mensual,1991-01-01,6.6,50,,900,30.32317,chirps-v2.0.1991.01.tif
30775,23065100,SABANETA [23065100],4.90175,-74.30738889,2475,Climática Ordinaria,INSTITUTO DE HIDROLOGIA METEOROLOGIA Y ESTUDIOS AMBIENTALES,Area Operativa 11 - Cundinamarca-Amazonas,Cundinamarca, La Vega,1986-08-15,,PRECIPITACION,PTPM_TT_M,Precipitación total mensual,Mensual,1991-01-01,115.7,50,,900,59.582436,chirps-v2.0.1991.01.tif
31368,21200880,SALITRE EL - NEUSA  [21200880],5.183333333,-74.0,3140,Pluviográfica,CORPORACION AUTONOMA REGIONAL DE CUNDINAMARCA,Area Operativa 11 - Cundinamarca-Amazonas,Cundinamarca,Tausa,1955-04-15,,PRECIPITACION,PTPM_TT_M,Precipitación total mensual,Mensual,1991-01-01,1.6,50,,900,12.954528,chirps-v2.0.1991.01.tif
31859,23125070,SAN CAYETANO [23125070],5.3,-74.06666667,2200,Climática Ordinaria,INSTITUTO DE HIDROLOGIA METEOROLOGIA Y ESTUDIOS AMBIENTALES,Area Operativa 11 - Cundinamarca-Amazonas,Cundinamarca,San Cayetano,1974-09-15,2008-12-11 00:00:00,PRECIPITACION,PTPM_TT_M,Precipitación total mensual,Mensual,1991-01-01,57.9,50,,900,33.19572,chirps-v2.0.1991.01.tif
31982,21201800,SAN GREGORIO  [21201800],4.683333333,-74.5,1050,Pluviográfica,CORPORACION AUTONOMA REGIONAL DE CUNDINAMARCA,Area Operativa 11 - Cundinamarca-Amazonas,Cundinamarca,Cachipay,1989-02-15,,PRECIPITACION,PTPM_TT_M,Precipitación total mensual,Mensual,1991-01-01,64.8,50,,900,61.66313,chirps-v2.0.1991.01.tif
32278,21201610,SAN ISIDRO [21201610],4.850288889,-73.89072222,2698,Pluviométrica,INSTITUTO DE HIDROLOGIA METEOROLOGIA Y ESTUDIOS AMBIENTALES,Area Operativa 11 - Cundinamarca-Amazonas,Cundinamarca,Guasca,1987-05-15,,PRECIPITACION,PTPM_TT_M,Precipitación total mensual,Mensual,1991-01-01,33.4,50,,900,23.669914,chirps-v2.0.1991.01.tif
32955,21201720,SAN JORGE GJA  [21201720],4.516666667,-74.2,2890,Pluviográfica,CORPORACION AUTONOMA REGIONAL DE CUNDINAMARCA,Area Operativa 11 - Cundinamarca-Amazonas,Cundinamarca,Soacha,1960-04-15,,PRECIPITACION,PTPM_TT_M,Precipitación total mensual,Mensual,1991-01-01,16.6,50,,900,32.879612,chirps-v2.0.1991.01.tif
33552,21205720,SAN JORGE GRANJA [21205720],4.50575,-74.18927778,2900,Climática Ordinaria,INSTITUTO DE HIDROLOGIA METEOROLOGIA Y ESTUDIOS AMBIENTALES,Area Operativa 11 - Cundinamarca-Amazonas,Cundinamarca,Soacha,1960-04-15,,PRECIPITACION,PTPM_TT_M,Precipitación total mensual,Mensual,1991-01-01,17.9,50,,900,27.96703,chirps-v2.0.1991.01.tif
34262,21200800,SAN JOSE  [21200800],4.983333333,-73.9,2700,Pluviográfica,CORPORACION AUTONOMA REGIONAL DE CUNDINAMARCA,Area Operativa 11 - Cundinamarca-Amazonas,Cundinamarca,Guasca,1960-10-15,,PRECIPITACION,PTPM_TT_M,Precipitación total mensual,Mensual,1991-01-01,58.7,50,,900,21.682364,chirps-v2.0.1991.01.tif
34687,21230080,SAN JUAN  [21230080],4.85,-74.66666667,1300,Pluviométrica,FEDERACION NACIONAL DE CAFETEROS,Area Operativa 10 - Tolima,Cundinamarca,San Juan De Rioseco,1982-01-15,,PRECIPITACION,PTPM_TT_M,Precipitación total mensual,Mensual,1991-01-01,0.0,50,,900,34.80753,chirps-v2.0.1991.01.tif
34926,21230070,SAN JUAN D RIOSECO [21230070],4.851277778,-74.62283333,1364,Pluviométrica,INSTITUTO DE HIDROLOGIA METEOROLOGIA Y ESTUDIOS AMBIENTALES,Area Operativa 10 - Tolima,Cundinamarca,San Juan De Rioseco,1974-12-15,,PRECIPITACION,PTPM_TT_M,Precipitación total mensual,Mensual,1991-01-01,31.3,50,,1200,39.566193,chirps-v2.0.1991.01.tif
35932,35030260,SAN LUIS  [35030260],4.483333333,-73.65,2959,Pluviométrica,EMPRESA DE ACUEDUCTO Y ALCANTARILLADO DE BOGOTA E.S.P,Area Operativa 11 - Cundinamarca-Amazonas,Cundinamarca,Fómeque,1990-08-15,,PRECIPITACION,PTPM_TT_M,Precipitación total mensual,Mensual,1991-01-01,105.8,50,,900,27.786274,chirps-v2.0.1991.01.tif
36302,21201250,SAN PEDRO [21201250],4.871638889,-73.96666667,2560,Pluviométrica,INSTITUTO DE HIDROLOGIA METEOROLOGIA Y ESTUDIOS AMBIENTALES,Area Operativa 11 - Cundinamarca-Amazonas,Cundinamarca,Sopó,1980-06-15,2013-02-15 00:00:00,PRECIPITACION,PTPM_TT_M,Precipitación total mensual,Mensual,1991-01-01,17.5,50,,900,25.765472,chirps-v2.0.1991.01.tif
37222,21200110,SAN RAFAEL 1  [21200110],4.7,-73.98333333,2750,Pluviométrica,EMPRESA DE ACUEDUCTO Y ALCANTARILLADO DE BOGOTA E.S.P,Area Operativa 11 - Cundinamarca-Amazonas,Cundinamarca,La Calera,1933-05-15,,PRECIPITACION,PTPM_TT_M,Precipitación total mensual,Mensual,1991-01-01,43.5,50,,900,23.981003,chirps-v2.0.1991.01.tif
37592,21206980,SANTA CRUZ DE SIECHA  - AUT [21206980],4.784277778,-73.87080556,3100,Agrometeorológica,INSTITUTO DE HIDROLOGIA METEOROLOGIA Y ESTUDIOS AMBIENTALES,Area Operativa 11 - Cundinamarca-Amazonas,Cundinamarca,Guasca,2005-11-08,,PRECIPITACION,PTPM_TT_M,Precipitación total mensual,Mensual,1991-01-01,28.0,50,,900,20.495577,chirps-v2.0.1991.01.tif
38761,35025060,BOLSA LA [35025060],4.575416667,-73.98141667,3195,Climática Ordinaria,INSTITUTO DE HIDROLOGIA METEOROLOGIA Y ESTUDIOS AMBIENTALES,Area Operativa 11 - Cundinamarca-Amazonas,Cundinamarca,Choachí,1987-05-15,,PRECIPITACION,PTPM_TT_M,Precipitación total mensual,Mensual,1991-01-01,15.0,50,,900,27.958244,chirps-v2.0.1991.01.tif
39711,23065120,CABRERA LA AUT [23065120],5.141555556,-74.13936111,20,Climática Principal,INSTITUTO DE HIDROLOGIA METEOROLOGIA Y ESTUDIOS AMBIENTALES,Area Operativa 11 - Cundinamarca-Amazonas,Cundinamarca,Pacho,1974-09-15,,PRECIPITACION,PTPM_TT_M,Precipitación total mensual,Mensual,1991-01-01,0.0,50,,900,29.091251,chirps-v2.0.1991.01.tif
40198,23060070,CANAIMA  [23060070],5.35,-74.41666667,1550,Pluviométrica,FEDERACION NACIONAL DE CAFETEROS,Area Operativa 11 - Cundinamarca-Amazonas,Cundinamarca,La Palma,1991-01-15,,PRECIPITACION,PTPM_TT_M,Precipitación total mensual,Mensual,1991-01-01,0.0,50,,900,56.01902,chirps-v2.0.1991.01.tif
40278,21201650,SANTA ROSITA [21201650],5.115916667,-73.75738889,2750,Pluviométrica,INSTITUTO DE HIDROLOGIA METEOROLOGIA Y ESTUDIOS AMBIENTALES,Area Operativa 11 - Cundinamarca-Amazonas,Cundinamarca,Suesca,1988-08-15,,PRECIPITACION,PTPM_TT_M,Precipitación total mensual,Mensual,1991-01-01,30.8,50,,900,18.995209,chirps-v2.0.1991.01.tif
40685,23065060,SANTA TERESA [23065060],4.842166667,-74.46169444,2200,Climática Ordinaria,INSTITUTO DE HIDROLOGIA METEOROLOGIA Y ESTUDIOS AMBIENTALES,Area Operativa 11 - Cundinamarca-Amazonas,Cundinamarca,Guayabal De Síquima,1988-12-15,,PRECIPITACION,PTPM_TT_M,Precipitación total mensual,Mensual,1991-01-01,64.6,50,,900,69.12972,chirps-v2.0.1991.01.tif
41423,21200270,SAUCIO  [21200270],5.108833333,-73.70627778,2640,Pluviográfica,CORPORACION AUTONOMA REGIONAL DE CUNDINAMARCA,Area Operativa 11 - Cundinamarca-Amazonas,Cundinamarca,Chocontá,1947-06-15,,PRECIPITACION,PTPM_TT_M,Precipitación total mensual,Mensual,1991-01-01,13.5,50,,900,15.131958,chirps-v2.0.1991.01.tif
42303,21200510,SIBATE APOSTOLICA  [21200510],4.516666667,-74.25,2618,Pluviográfica,CORPORACION AUTONOMA REGIONAL DE CUNDINAMARCA,Area Operativa 11 - Cundinamarca-Amazonas,Cundinamarca,Sibaté,1956-05-15,,PRECIPITACION,PTPM_TT_M,Precipitación total mensual,Mensual,1991-01-01,7.3,50,,900,32.536404,chirps-v2.0.1991.01.tif
42599,23060290,SILENCIO EL [23060290],4.973166667,-74.41205556,1425,Pluviométrica,INSTITUTO DE HIDROLOGIA METEOROLOGIA Y ESTUDIOS AMBIENTALES,Area Operativa 11 - Cundinamarca-Amazonas,Cundinamarca,Sasaima,1986-03-15,,PRECIPITACION,PTPM_TT_M,Precipitación total mensual,Mensual,1991-01-01,169.5,50,,900,67.023605,chirps-v2.0.1991.01.tif
43174,21205740,SILOS [21205740],5.117722222,-73.70141667,2709,Climática Ordinaria,INSTITUTO DE HIDROLOGIA METEOROLOGIA Y ESTUDIOS AMBIENTALES,Area Operativa 11 - Cundinamarca-Amazonas,Cundinamarca,Chocontá,1974-03-15,,PRECIPITACION,PTPM_TT_M,Precipitación total mensual,Mensual,1991-01-01,12.8,50,,900,15.131958,chirps-v2.0.1991.01.tif
43725,23065140,STA BARBARA  [23065140],4.95,-74.41666667,1450,Climática Principal,FEDERACION NACIONAL DE CAFETEROS,Area Operativa 11 - Cundinamarca-Amazonas,Cundinamarca,Sasaima,1991-01-15,,PRECIPITACION,PTPM_TT_M,Precipitación total mensual,Mensual,1991-01-01,0.0,50,,900,67.023605,chirps-v2.0.1991.01.tif
43879,21201360,STA INES  [21201360],4.816666667,-74.13333333,2550,Pluviométrica,CORPORACION AUTONOMA REGIONAL DE CUNDINAMARCA,Area Operativa 11 - Cundinamarca-Amazonas,Cundinamarca,Tenjo,1980-03-15,,PRECIPITACION,PTPM_TT_M,Precipitación total mensual,Mensual,1991-01-01,17.5,50,,900,32.750656,chirps-v2.0.1991.01.tif
44353,21201760,STA ISABEL  [21201760],4.983333333,-74.06666667,2680,Pluviométrica,CORPORACION AUTONOMA REGIONAL DE CUNDINAMARCA,Area Operativa 11 - Cundinamarca-Amazonas,Cundinamarca,Tabio,1968-05-15,,PRECIPITACION,PTPM_TT_M,Precipitación total mensual,Mensual,1991-01-01,9.0,50,,900,22.141365,chirps-v2.0.1991.01.tif
44726,21201030,STA TERESA  [21201030],4.666666667,-73.93333333,3080,Pluviográfica,CORPORACION AUTONOMA REGIONAL DE CUNDINAMARCA,Area Operativa 11 - Cundinamarca-Amazonas,Cundinamarca,La Calera,1970-09-15,,PRECIPITACION,PTPM_TT_M,Precipitación total mensual,Mensual,1991-01-01,123.0,50,,900,34.23561,chirps-v2.0.1991.01.tif
45020,21201620,SUESCA [21201620],5.109583333,-73.79697222,2575,Pluviométrica,INSTITUTO DE HIDROLOGIA METEOROLOGIA Y ESTUDIOS AMBIENTALES,Area Operativa 11 - Cundinamarca-Amazonas,Cundinamarca,Suesca,1987-05-15,2019-05-03 14:59:00,PRECIPITACION,PTPM_TT_M,Precipitación total mensual,Mensual,1991-01-01,17.2,50,,900,18.995209,chirps-v2.0.1991.01.tif
45450,35060020,SUEVA [35060020],4.81,-73.70716667,1965,Pluviométrica,INSTITUTO DE HIDROLOGIA METEOROLOGIA Y ESTUDIOS AMBIENTALES,Area Operativa 11 - Cundinamarca-Amazonas,Cundinamarca,Junín,1972-07-15,,PRECIPITACION,PTPM_TT_M,Precipitación total mensual,Mensual,1991-01-01,3.2,50,,900,22.359116,chirps-v2.0.1991.01.tif
45985,23060200,SUPATA [23060200],5.059694444,-74.239166667,1798,Pluviométrica,INSTITUTO DE HIDROLOGIA METEOROLOGIA Y ESTUDIOS AMBIENTALES,Area Operativa 11 - Cundinamarca-Amazonas,Cundinamarca,Supata,1974-09-15,,PRECIPITACION,PTPM_TT_M,Precipitación total mensual,Mensual,1991-01-01,207.1,50,,900,61.471783,chirps-v2.0.1991.01.tif
46672,24015210,SUTATAUSA  [24015210],5.25,-73.85,2700,Climática Ordinaria,CORPORACION AUTONOMA REGIONAL DE CUNDINAMARCA,Area Operativa 11 - Cundinamarca-Amazonas,Cundinamarca,Sutatausa,1965-04-15,,PRECIPITACION,PTPM_TT_M,Precipitación total mensual,Mensual,1991-01-01,11.5,50,,900,13.280597,chirps-v2.0.1991.01.tif
47077,21205650,TABIO  [21205650],4.766666667,-73.93333333,2620,Climática Principal,CORPORACION AUTONOMA REGIONAL DE CUNDINAMARCA,Area Operativa 11 - Cundinamarca-Amazonas,Cundinamarca,Tabio,1970-07-15,,PRECIPITACION,PTPM_TT_M,Precipitación total mensual,Mensual,1991-01-01,10.2,50,,900,26.183306,chirps-v2.0.1991.01.tif
47325,21201630,TABIO GRANJA [21201630],4.933055556,-74.06561111,2600,Pluviográfica,INSTITUTO DE HIDROLOGIA METEOROLOGIA Y ESTUDIOS AMBIENTALES,Area Operativa 11 - Cundinamarca-Amazonas,Cundinamarca,Tabio,1987-05-15,,PRECIPITACION,PTPM_TT_M,Precipitación total mensual,Mensual,1991-01-01,12.5,50,,900,24.942234,chirps-v2.0.1991.01.tif
48018,24010280,TAPIAS  [24010280],5.3,-73.71666667,2585,Pluviográfica,CORPORACION AUTONOMA REGIONAL DE CUNDINAMARCA,Area Operativa 11 - Cundinamarca-Amazonas,Cundinamarca,Lenguazaque,1960-03-15,,PRECIPITACION,PTPM_TT_M,Precipitación total mensual,Mensual,1991-01-01,0.0,50,,900,13.270922,chirps-v2.0.1991.01.tif
48348,35060170,TASAJERAS [35060170],4.885694444,-73.60036111,2502,Pluviométrica,INSTITUTO DE HIDROLOGIA METEOROLOGIA Y ESTUDIOS AMBIENTALES,Area Operativa 11 - Cundinamarca-Amazonas,Cundinamarca,Gachetá,1972-02-15,,PRECIPITACION,PTPM_TT_M,Precipitación total mensual,Mensual,1991-01-01,7.0,50,,900,19.371853,chirps-v2.0.1991.01.tif
48933,35060150,TEMBLADARES [35060150],4.704861111,-73.66527778,2878,Pluviométrica,INSTITUTO DE HIDROLOGIA METEOROLOGIA Y ESTUDIOS AMBIENTALES,Area Operativa 11 - Cundinamarca-Amazonas,Cundinamarca,Junín,1972-02-15,,PRECIPITACION,PTPM_TT_M,Precipitación total mensual,Mensual,1991-01-01,12.4,50,,900,25.903257,chirps-v2.0.1991.01.tif
49578,21200690,TESORO-VERTIENTES  [21200690],4.8,-74.31666667,2610,Pluviométrica,CORPORACION AUTONOMA REGIONAL DE CUNDINAMARCA,Area Operativa 11 - Cundinamarca-Amazonas,Cundinamarca,Facatativá,1931-08-15,,PRECIPITACION,PTPM_TT_M,Precipitación total mensual,Mensual,1991-01-01,0.0,50,,900,40.35742,chirps-v2.0.1991.01.tif
50305,21190030,TIBACUY [21190030],4.348055556,-74.45447222,1635,Pluviográfica,INSTITUTO DE HIDROLOGIA METEOROLOGIA Y ESTUDIOS AMBIENTALES,Area Operativa 11 - Cundinamarca-Amazonas,Cundinamarca,Tibacuy,1986-10-15,,PRECIPITACION,PTPM_TT_M,Precipitación total mensual,Mensual,1991-01-01,95.0,50,,900,73.150795,chirps-v2.0.1991.01.tif
51118,21205420,TIBAITATA [21205420],4.691416667,-74.209,2543,Agrometeorológica,INSTITUTO DE HIDROLOGIA METEOROLOGIA Y ESTUDIOS AMBIENTALES,Area Operativa 11 - Cundinamarca-Amazonas,Cundinamarca,Mosquera,1954-03-15,,PRECIPITACION,PTPM_TT_M,Precipitación total mensual,Mensual,1991-01-01,3.5,50,,900,28.283358,chirps-v2.0.1991.01.tif
51616,21201270,TIBAR EL [21201270],4.816666667,-74.23333333,2550,Pluviométrica,INSTITUTO DE HIDROLOGIA METEOROLOGIA Y ESTUDIOS AMBIENTALES,Area Operativa 11 - Cundinamarca-Amazonas,Cundinamarca,Madrid,1980-12-15,2002-02-15 00:00:00,PRECIPITACION,PTPM_TT_M,Precipitación total mensual,Mensual,1991-01-01,5.7,50,,900,33.714783,chirps-v2.0.1991.01.tif
52119,21201100,TOCAIMA [21201100],4.466666667,-74.65,490,Pluviométrica,INSTITUTO DE HIDROLOGIA METEOROLOGIA Y ESTUDIOS AMBIENTALES,Area Operativa 11 - Cundinamarca-Amazonas,Cundinamarca,Tocaima,1974-11-15,,PRECIPITACION,PTPM_TT_M,Precipitación total mensual,Mensual,1991-01-01,32.5,50,,900,53.098484,chirps-v2.0.1991.01.tif
52869,35060230,TRES ESQUINAS [35060230],4.781416667,-73.48905556,1943,Pluviométrica,INSTITUTO DE HIDROLOGIA METEOROLOGIA Y ESTUDIOS AMBIENTALES,Area Operativa 11 - Cundinamarca-Amazonas,Cundinamarca,Ubalá,1972-02-15,,PRECIPITACION,PTPM_TT_M,Precipitación total mensual,Mensual,1991-01-01,5.0,50,,900,18.169605,chirps-v2.0.1991.01.tif
53900,23060140,TUSCOLO EL [23060140],5.069444444,-74.608055556,985,Pluviométrica,INSTITUTO DE HIDROLOGIA METEOROLOGIA Y ESTUDIOS AMBIENTALES,Area Operativa 11 - Cundinamarca-Amazonas,Cundinamarca,Guaduas,1971-02-15,,PRECIPITACION,PTPM_TT_M,Precipitación total mensual,Mensual,1991-01-01,25.0,50,,900,38.960194,chirps-v2.0.1991.01.tif
54613,35060180,UBALA [35060180],4.752388889,-73.52858333,1929,Pluviométrica,INSTITUTO DE HIDROLOGIA METEOROLOGIA Y ESTUDIOS AMBIENTALES,Area Operativa 11 - Cundinamarca-Amazonas,Cundinamarca,Ubalá,1959-08-15,,PRECIPITACION,PTPM_TT_M,Precipitación total mensual,Mensual,1991-01-01,6.5,50,,900,21.403072,chirps-v2.0.1991.01.tif
55034,24011090,UBATE GRANJA [24011090],5.327333333,-73.79144444,2555,Pluviográfica,INSTITUTO DE HIDROLOGIA METEOROLOGIA Y ESTUDIOS AMBIENTALES,Area Operativa 11 - Cundinamarca-Amazonas,Cundinamarca,Ubaté,1987-05-15,2010-03-31 00:00:00,PRECIPITACION,PTPM_TT_M,Precipitación total mensual,Mensual,1991-01-01,2.2,50,,900,14.390707,chirps-v2.0.1991.01.tif
55769,35020420,UNE  [35020420],4.4,-74.01666667,2430,Pluviométrica,EMPRESA DE ACUEDUCTO Y ALCANTARILLADO DE BOGOTA E.S.P,Area Operativa 11 - Cundinamarca-Amazonas,Cundinamarca,Une,1947-01-15,,PRECIPITACION,PTPM_TT_M,Precipitación total mensual,Mensual,1991-01-01,0.3,50,,900,16.840448,chirps-v2.0.1991.01.tif
56079,21201320,UNION LA [21201320],4.509361111,-74.26880556,2640,Pluviométrica,INSTITUTO DE HIDROLOGIA METEOROLOGIA Y ESTUDIOS AMBIENTALES,Area Operativa 11 - Cundinamarca-Amazonas,Cundinamarca,Sibaté,1985-03-15,,PRECIPITACION,PTPM_TT_M,Precipitación total mensual,Mensual,1991-01-01,17.2,50,,900,32.536404,chirps-v2.0.1991.01.tif
56775,21200550,UNION LA-EL ROSAL  [21200550],4.866666667,-74.25,2725,Pluviométrica,CORPORACION AUTONOMA REGIONAL DE CUNDINAMARCA,Area Operativa 11 - Cundinamarca-Amazonas,Cundinamarca,Subachoque,1960-01-15,,PRECIPITACION,PTPM_TT_M,Precipitación total mensual,Mensual,1991-01-01,80.5,50,,900,31.260668,chirps-v2.0.1991.01.tif
57345,23060190,UTICA [23060190],5.196083333,-74.4855,497,Pluviométrica,INSTITUTO DE HIDROLOGIA METEOROLOGIA Y ESTUDIOS AMBIENTALES,Area Operativa 11 - Cundinamarca-Amazonas,Cundinamarca,Útica,1974-09-15,,PRECIPITACION,PTPM_TT_M,Precipitación total mensual,Mensual,1991-01-01,41.3,50,,900,53.78559,chirps-v2.0.1991.01.tif
58148,35060120,VEGA LA SAN JUAN [35060120],4.723305556,-73.47055556,1791,Pluviométrica,INSTITUTO DE HIDROLOGIA METEOROLOGIA Y ESTUDIOS AMBIENTALES,Area Operativa 11 - Cundinamarca-Amazonas,Cundinamarca,Gachalá,1972-02-15,,PRECIPITACION,PTPM_TT_M,Precipitación total mensual,Mensual,1991-01-01,21.0,50,,900,17.95386,chirps-v2.0.1991.01.tif
58714,21206290,VENECIA  [21206290],4.866666667,-74.41666667,2673,Climática Principal,CORPORACION AUTONOMA REGIONAL DE CUNDINAMARCA,Area Operativa 11 - Cundinamarca-Amazonas,Cundinamarca,Facatativá,1986-12-15,,PRECIPITACION,PTPM_TT_M,Precipitación total mensual,Mensual,1991-01-01,65.0,50,,900,91.92904,chirps-v2.0.1991.01.tif
59451,21200260,VENTALARGA  [21200260],5.066666667,-74.05,3062,Pluviográfica,CORPORACION AUTONOMA REGIONAL DE CUNDINAMARCA,Area Operativa 11 - Cundinamarca-Amazonas,Cundinamarca,Zipaquirá,1947-06-15,,PRECIPITACION,PTPM_TT_M,Precipitación total mensual,Mensual,1991-01-01,6.7,50,,900,18.272827,chirps-v2.0.1991.01.tif
59874,21206400,VICTORIA LA  [21206400],4.466666667,-74.6,380,Climática Principal,CORPORACION AUTONOMA REGIONAL DE CUNDINAMARCA,Area Operativa 10 - Tolima,Cundinamarca,Tocaima,1986-12-15,,PRECIPITACION,PTPM_TT_M,Precipitación total mensual,Mensual,1991-01-01,54.3,50,,900,64.59656,chirps-v2.0.1991.01.tif
61338,21200430,VILLAPINZON  [21200430],5.2,-73.6,2700,Pluviográfica,CORPORACION AUTONOMA REGIONAL DE CUNDINAMARCA,Area Operativa 11 - Cundinamarca-Amazonas,Cundinamarca,Villapinzón,1951-07-15,,PRECIPITACION,PTPM_TT_M,Precipitación total mensual,Mensual,1991-01-01,2.8,4,,900,8.980806,chirps-v2.0.1991.01.tif
61558,21201640,VILLAPINZON GRANJA [21201640],5.26375,-73.59086111,2745,Pluviográfica,INSTITUTO DE HIDROLOGIA METEOROLOGIA Y ESTUDIOS AMBIENTALES,Area Operativa 11 - Cundinamarca-Amazonas,Cundinamarca,Villapinzón,1987-05-15,,PRECIPITACION,PTPM_TT_M,Precipitación total mensual,Mensual,1991-01-01,17.1,50,,900,12.419627,chirps-v2.0.1991.01.tif
62423,21201090,VIOTA [21201090],4.442694444,-74.54225,567,Pluviométrica,INSTITUTO DE HIDROLOGIA METEOROLOGIA Y ESTUDIOS AMBIENTALES,Area Operativa 11 - Cundinamarca-Amazonas,Cundinamarca,Viotá,1974-11-15,,PRECIPITACION,PTPM_TT_M,Precipitación total mensual,Mensual,1991-01-01,96.0,50,,900,74.80364,chirps-v2.0.1991.01.tif
63351,21200740,ZIPAQUIRA  [21200740],5.016666667,-74.0,2655,Pluviográfica,CORPORACION AUTONOMA REGIONAL DE CUNDINAMARCA,Area Operativa 11 - Cundinamarca-Amazonas,Cundinamarca,Zipaquirá,1960-02-15,,PRECIPITACION,PTPM_TT_M,Precipitación total mensual,Mensual,1991-01-01,0.0,50,,900,19.10387,chirps-v2.0.1991.01.tif
63948,35070110,GUAYATA LA GRANJA [35070110],4.976083333,-73.49930556,1580,Pluviográfica,INSTITUTO DE HIDROLOGIA METEOROLOGIA Y ESTUDIOS AMBIENTALES,Area Operativa 06 - Boyacá-Casanare-Vichada,Boyacá,Guayatá,1971-07-15,,PRECIPITACION,PTPM_TT_M,Precipitación total mensual,Mensual,1991-01-01,5.0,50,,900,13.831155,chirps-v2.0.1991.01.tif
64742,21201770,ANCLAJE 14  [21201770],4.6,-74.4,1110,Pluviográfica,CORPORACION AUTONOMA REGIONAL DE CUNDINAMARCA,Area Operativa 11 - Cundinamarca-Amazonas,Bogota,"Bogota, D.C",1987-12-15,,PRECIPITACION,PTPM_TT_M,Precipitación total mensual,Mensual,1991-01-01,0.0,50,,900,47.582413,chirps-v2.0.1991.01.tif
65299,21205590,APTO GUAYMARAL  [21205590],4.816666667,-74.08333333,2560,Sinóptica Secundaria,CORPORACION AUTONOMA REGIONAL DE CUNDINAMARCA,Area Operativa 11 - Cundinamarca-Amazonas,Bogota,"Bogota, D.C",1965-08-15,,PRECIPITACION,PTPM_TT_M,Precipitación total mensual,Mensual,1991-01-01,51.5,50,,900,48.332592,chirps-v2.0.1991.01.tif
66042,21200080,ARRAYAN-SAN FCO  [21200080],4.583333333,-74.03333333,3047,Pluviométrica,EMPRESA DE ACUEDUCTO Y ALCANTARILLADO DE BOGOTA E.S.P,Area Operativa 11 - Cundinamarca-Amazonas,Bogota,"Bogota, D.C",1925-01-15,,PRECIPITACION,PTPM_TT_M,Precipitación total mensual,Mensual,1991-01-01,54.0,50,,900,25.672138,chirps-v2.0.1991.01.tif
66355,21201300,AUSTRALIA [21201300],4.39425,-74.132,3050,Pluviométrica,INSTITUTO DE HIDROLOGIA METEOROLOGIA Y ESTUDIOS AMBIENTALES,Area Operativa 11 - Cundinamarca-Amazonas,Bogota,"Bogota, D.C",1985-03-15,,PRECIPITACION,PTPM_TT_M,Precipitación total mensual,Mensual,1991-01-01,5.2,50,,900,13.2426605,chirps-v2.0.1991.01.tif
66796,35020350,BETANIA [35020350],4.218888889,-74.14686111,3150,Pluviométrica,INSTITUTO DE HIDROLOGIA METEOROLOGIA Y ESTUDIOS AMBIENTALES,Area Operativa 11 - Cundinamarca-Amazonas,Bogota,"Bogota, D.C",1986-01-15,,PRECIPITACION,PTPM_TT_M,Precipitación total mensual,Mensual,1991-01-01,8.0,50,,900,18.996437,chirps-v2.0.1991.01.tif
68412,21206260,C.UNIV.AGROP-UDCA [21206260],4.798638889,-74.04972222,2570,Climática Ordinaria,INSTITUTO DE HIDROLOGIA METEOROLOGIA Y ESTUDIOS AMBIENTALES,Area Operativa 11 - Cundinamarca-Amazonas,Bogota,"Bogota, D.C",1988-12-15,,PRECIPITACION,PTPM_TT_M,Precipitación total mensual,Mensual,1991-01-01,41.0,50,,900,26.476257,chirps-v2.0.1991.01.tif
68940,21205690,CAMAVIEJA  [21205690],4.616666667,-74.1,2680,Climática Ordinaria,EMPRESA DE ACUEDUCTO Y ALCANTARILLADO DE BOGOTA E.S.P,Area Operativa 11 - Cundinamarca-Amazonas,Bogota,"Bogota, D.C",1957-11-15,,PRECIPITACION,PTPM_TT_M,Precipitación total mensual,Mensual,1991-01-01,30.5,50,,900,18.332258,chirps-v2.0.1991.01.tif
69362,21201970,CASABLANCA  [21201970],4.566666667,-74.16666667,2665,Pluviométrica,EMPRESA DE ACUEDUCTO Y ALCANTARILLADO DE BOGOTA E.S.P,Area Operativa 11 - Cundinamarca-Amazonas,Bogota,"Bogota, D.C",1976-05-15,,PRECIPITACION,PTPM_TT_M,Precipitación total mensual,Mensual,1991-01-01,32.8,50,,900,30.39647,chirps-v2.0.1991.01.tif
70166,21200310,CERRO DE SUBA  [21200310],4.75,-74.06666667,2691,Pluviométrica,EMPRESA DE ACUEDUCTO Y ALCANTARILLADO DE BOGOTA E.S.P,Area Operativa 11 - Cundinamarca-Amazonas,Bogota,"Bogota, D.C",1947-09-15,,PRECIPITACION,PTPM_TT_M,Precipitación total mensual,Mensual,1991-01-01,42.1,50,,900,28.41532,chirps-v2.0.1991.01.tif
70730,21200850,CISACA  [21200850],4.483333333,-74.08333333,2880,Pluviográfica,CORPORACION AUTONOMA REGIONAL DE CUNDINAMARCA,Area Operativa 11 - Cundinamarca-Amazonas,Bogota,"Bogota, D.C",1962-12-15,,PRECIPITACION,PTPM_TT_M,Precipitación total mensual,Mensual,1991-01-01,21.0,4,,900,17.467688,chirps-v2.0.1991.01.tif
71623,21202080,CONEJERA LA  [21202080],4.766666667,-74.06666667,2500,Pluviográfica,EMPRESA DE ACUEDUCTO Y ALCANTARILLADO DE BOGOTA E.S.P,Area Operativa 11 - Cundinamarca-Amazonas,Bogota,"Bogota, D.C",1990-05-15,,PRECIPITACION,PTPM_TT_M,Precipitación total mensual,Mensual,1991-01-01,29.2,50,,900,28.41532,chirps-v2.0.1991.01.tif
72916,21200130,DELIRIO  [21200130],4.55,-74.05,3000,Pluviométrica,EMPRESA DE ACUEDUCTO Y ALCANTARILLADO DE BOGOTA E.S.P,Area Operativa 11 - Cundinamarca-Amazonas,Bogota,"Bogota, D.C",1933-05-15,,PRECIPITACION,PTPM_TT_M,Precipitación total mensual,Mensual,1991-01-01,36.0,50,,900,27.532438,chirps-v2.0.1991.01.tif
73182,21206300,DONA JUANA  [21206300],4.5,-74.16666667,2700,Climática Principal,CORPORACION AUTONOMA REGIONAL DE CUNDINAMARCA,Area Operativa 11 - Cundinamarca-Amazonas,Bogota,"Bogota, D.C",1989-03-15,,PRECIPITACION,PTPM_TT_M,Precipitación total mensual,Mensual,1991-01-01,4.8,50,,900,27.96703,chirps-v2.0.1991.01.tif
73838,21205791,ELDORADO CATAM - AUT [21205791],4.705583333,-74.15066667,2547,Sinóptica Principal,INSTITUTO DE HIDROLOGIA METEOROLOGIA Y ESTUDIOS AMBIENTALES,Area Operativa 11 - Cundinamarca-Amazonas,Bogota,"Bogota, D.C",2002-10-31,,PRECIPITACION,PTPM_TT_M,Precipitación total mensual,Mensual,1991-01-01,25.5,50,,900,24.80463,chirps-v2.0.1991.01.tif
74455,21205520,ELDORADO DIDACTICA [21205520],4.7,-74.15,2546,Climática Principal,INSTITUTO DE HIDROLOGIA METEOROLOGIA Y ESTUDIOS AMBIENTALES,Area Operativa 11 - Cundinamarca-Amazonas,Bogota,"Bogota, D.C",1959-01-15,2000-03-15 00:00:00,PRECIPITACION,PTPM_TT_M,Precipitación total mensual,Mensual,1991-01-01,29.3,50,,900,24.80463,chirps-v2.0.1991.01.tif
77280,21205400,CHECUA-NEMOCON  [21205400],5.116666667,-73.86666667,2580,Climática Principal,CORPORACION AUTONOMA REGIONAL DE CUNDINAMARCA,Area Operativa 11 - Cundinamarca-Amazonas,Cundinamarca,Nemocón,1953-04-15,,PRECIPITACION,PTPM_TT_M,Precipitación total mensual,Mensual,1991-01-01,8.0,50,,900,19.174765,chirps-v2.0.1991.01.tif
77445,21206050,ESCUELA COL INGENIERIA [21206050],4.783333333,-74.05,2650,Climática Principal,INSTITUTO DE HIDROLOGIA METEOROLOGIA Y ESTUDIOS AMBIENTALES,Area Operativa 11 - Cundinamarca-Amazonas,Bogota,"Bogota, D.C",1986-04-15,2008-12-10 00:00:00,PRECIPITACION,PTPM_TT_M,Precipitación total mensual,Mensual,1991-01-01,56.1,50,,900,28.41532,chirps-v2.0.1991.01.tif
77708,21201200,ESCUELA LA UNION [21201200],4.34264,-74.18381,3378,Climática Ordinaria,INSTITUTO DE HIDROLOGIA METEOROLOGIA Y ESTUDIOS AMBIENTALES,Area Operativa 11 - Cundinamarca-Amazonas,Bogota,"Bogota, D.C",2007-08-01,,PRECIPITACION,PTPM_TT_M,Precipitación total mensual,Mensual,1991-01-01,0.0,50,,900,17.194674,chirps-v2.0.1991.01.tif
78533,21202120,FONTIBON ACUEDUCTO  [21202120],4.666666667,-74.15,2545,Pluviométrica,EMPRESA DE ACUEDUCTO Y ALCANTARILLADO DE BOGOTA E.S.P,Area Operativa 11 - Cundinamarca-Amazonas,Bogota,"Bogota, D.C",1955-09-15,,PRECIPITACION,PTPM_TT_M,Precipitación total mensual,Mensual,1991-01-01,24.2,50,,900,30.269333,chirps-v2.0.1991.01.tif
79286,21200320,GRANIZO  [21200320],4.616666667,-74.05,3125,Pluviométrica,EMPRESA DE ACUEDUCTO Y ALCANTARILLADO DE BOGOTA E.S.P,Area Operativa 11 - Cundinamarca-Amazonas,Bogota,"Bogota, D.C",1947-09-15,,PRECIPITACION,PTPM_TT_M,Precipitación total mensual,Mensual,1991-01-01,35.7,50,,900,22.000683,chirps-v2.0.1991.01.tif
79566,21201980,GUADALUPE  - AUT  [21201980],4.59157,-74.05471,3227,Climática Ordinaria,FONDO DE PREVENCION Y ATENCION DE DESASTRES DE BOGOTA DC - FOPAE,Area Operativa 11 - Cundinamarca-Amazonas,Bogota,"Bogota, D.C",2007-09-01,,PRECIPITACION,PTPM_TT_M,Precipitación total mensual,Mensual,1991-01-01,60.5,50,,900,27.532438,chirps-v2.0.1991.01.tif
80437,21200200,HATO EL  [21200200],4.383333333,-74.18333333,3150,Pluviométrica,EMPRESA DE ACUEDUCTO Y ALCANTARILLADO DE BOGOTA E.S.P,Area Operativa 11 - Cundinamarca-Amazonas,Bogota,"Bogota, D.C",1928-06-15,,PRECIPITACION,PTPM_TT_M,Precipitación total mensual,Mensual,1991-01-01,1.6,50,,900,20.30377,chirps-v2.0.1991.01.tif
81632,21205540,INST GEOFI ANDES  [21205540],4.633333333,-74.06666667,2600,Climática Ordinaria,ESTACIONES PARTICULARES,Area Operativa 11 - Cundinamarca-Amazonas,Bogota,"Bogota, D.C",1942-01-15,,PRECIPITACION,PTPM_TT_M,Precipitación total mensual,Mensual,1991-01-01,57.8,50,,900,22.000683,chirps-v2.0.1991.01.tif
81852,21205710,JARDIN BOTANICO  - AUT [21205710],4.669333333,-74.10266667,2552,Climática Principal,INSTITUTO DE HIDROLOGIA METEOROLOGIA Y ESTUDIOS AMBIENTALES,Area Operativa 11 - Cundinamarca-Amazonas,Bogota,"Bogota, D.C",1974-09-15,,PRECIPITACION,PTPM_TT_M,Precipitación total mensual,Mensual,1991-01-01,37.8,50,,900,13.5428095,chirps-v2.0.1991.01.tif
82487,21202040,JUAN REY  [21202040],4.516666667,-74.08333333,2682,Pluviográfica,FONDO DE PREVENCION Y ATENCION DE DESASTRES DE BOGOTA DC - FOPAE,Area Operativa 11 - Cundinamarca-Amazonas,Bogota,"Bogota, D.C",1990-08-15,,PRECIPITACION,PTPM_TT_M,Precipitación total mensual,Mensual,1991-01-01,16.6,50,,900,21.937378,chirps-v2.0.1991.01.tif
84036,21205230,OBS MET NACIONAL [21205230],4.633333333,-74.1,2556,Climática Principal,INSTITUTO DE HIDROLOGIA METEOROLOGIA Y ESTUDIOS AMBIENTALES,Area Operativa 11 - Cundinamarca-Amazonas,Bogota,"Bogota, D.C",1941-03-15,1993-11-15 00:00:00,PRECIPITACION,PTPM_TT_M,Precipitación total mensual,Mensual,1991-01-01,74.4,50,,900,18.332258,chirps-v2.0.1991.01.tif
84650,21201560,PICOTA LA  [21201560],4.566666667,-74.13333333,2580,Pluviográfica,CORPORACION AUTONOMA REGIONAL DE CUNDINAMARCA,Area Operativa 11 - Cundinamarca-Amazonas,Bogota,"Bogota, D.C",1980-06-15,,PRECIPITACION,PTPM_TT_M,Precipitación total mensual,Mensual,1991-01-01,12.5,50,,900,22.665092,chirps-v2.0.1991.01.tif
84902,21202050,QUIBA  [21202050],4.533333333,-74.16666667,3000,Pluviográfica,EMPRESA DE ACUEDUCTO Y ALCANTARILLADO DE BOGOTA E.S.P,Area Operativa 11 - Cundinamarca-Amazonas,Bogota,"Bogota, D.C",1990-01-15,,PRECIPITACION,PTPM_TT_M,Precipitación total mensual,Mensual,1991-01-01,7.5,50,,900,27.96703,chirps-v2.0.1991.01.tif
86077,21200340,REGADERA 2 LA  [21200340],4.4,-74.15,3056,Pluviométrica,EMPRESA DE ACUEDUCTO Y ALCANTARILLADO DE BOGOTA E.S.P,Area Operativa 11 - Cundinamarca-Amazonas,Bogota,"Bogota, D.C",1948-01-15,,PRECIPITACION,PTPM_TT_M,Precipitación total mensual,Mensual,1991-01-01,2.8,50,,900,22.470188,chirps-v2.0.1991.01.tif
86508,21201960,SALITRE CASA BOMBA  [21201960],4.666666667,-74.06666667,2580,Pluviográfica,EMPRESA DE ACUEDUCTO Y ALCANTARILLADO DE BOGOTA E.S.P,Area Operativa 11 - Cundinamarca-Amazonas,Bogota,"Bogota, D.C",1975-01-15,,PRECIPITACION,PTPM_TT_M,Precipitación total mensual,Mensual,1991-01-01,49.9,50,,900,17.97769,chirps-v2.0.1991.01.tif
87277,21200230,SAN DIEGO  [21200230],4.616666667,-74.06666667,2700,Pluviométrica,EMPRESA DE ACUEDUCTO Y ALCANTARILLADO DE BOGOTA E.S.P,Area Operativa 11 - Cundinamarca-Amazonas,Bogota,"Bogota, D.C",1945-12-15,,PRECIPITACION,PTPM_TT_M,Precipitación total mensual,Mensual,1991-01-01,89.9,50,,900,22.000683,chirps-v2.0.1991.01.tif
88113,21200400,SAN LUIS 1 Y 2  [21200400],4.633333333,-74.03333333,3000,Pluviográfica,EMPRESA DE ACUEDUCTO Y ALCANTARILLADO DE BOGOTA E.S.P,Area Operativa 11 - Cundinamarca-Amazonas,Bogota,"Bogota, D.C",1936-02-15,,PRECIPITACION,PTPM_TT_M,Precipitación total mensual,Mensual,1991-01-01,105.8,50,,900,22.636196,chirps-v2.0.1991.01.tif
88514,21201240,SANTA MARIA DE USME [21201240],4.481305556,-74.12627778,2800,Pluviométrica,INSTITUTO DE HIDROLOGIA METEOROLOGIA Y ESTUDIOS AMBIENTALES,Area Operativa 11 - Cundinamarca-Amazonas,Bogota,"Bogota, D.C",1977-12-15,,PRECIPITACION,PTPM_TT_M,Precipitación total mensual,Mensual,1991-01-01,4.1,50,,900,21.05474,chirps-v2.0.1991.01.tif
88805,21202070,SAUCEDAL 2  [21202070],4.65,-74.15,2900,Pluviométrica,EMPRESA DE ACUEDUCTO Y ALCANTARILLADO DE BOGOTA E.S.P,Area Operativa 11 - Cundinamarca-Amazonas,Bogota,"Bogota, D.C",1990-04-15,,PRECIPITACION,PTPM_TT_M,Precipitación total mensual,Mensual,1991-01-01,11.6,50,,900,30.269333,chirps-v2.0.1991.01.tif
89101,21201600,SEDE IDEAM KRA 10 [21201600],4.607111111,-74.07288889,2685,Pluviográfica,INSTITUTO DE HIDROLOGIA METEOROLOGIA Y ESTUDIOS AMBIENTALES,Area Operativa 11 - Cundinamarca-Amazonas,Bogota,"Bogota, D.C",1986-09-15,2019-05-03 14:58:00,PRECIPITACION,PTPM_TT_M,Precipitación total mensual,Mensual,1991-01-01,68.0,50,,900,22.000683,chirps-v2.0.1991.01.tif
89448,21202020,SERREZUELA  [21202020],4.766666667,-74.01666667,2800,Pluviográfica,EMPRESA DE ACUEDUCTO Y ALCANTARILLADO DE BOGOTA E.S.P,Area Operativa 11 - Cundinamarca-Amazonas,Bogota,"Bogota, D.C",1989-11-15,,PRECIPITACION,PTPM_TT_M,Precipitación total mensual,Mensual,1991-01-01,46.9,50,,900,26.476257,chirps-v2.0.1991.01.tif
90107,21200520,STA LUCIA  [21200520],4.566666667,-74.11666667,2630,Pluviométrica,EMPRESA DE ACUEDUCTO Y ALCANTARILLADO DE BOGOTA E.S.P,Area Operativa 11 - Cundinamarca-Amazonas,Bogota,"Bogota, D.C",1956-07-15,,PRECIPITACION,PTPM_TT_M,Precipitación total mensual,Mensual,1991-01-01,45.4,50,,900,22.665092,chirps-v2.0.1991.01.tif
90750,21200770,TORCA  [21200770],4.783333333,-74.03333333,2579,Pluviométrica,CORPORACION AUTONOMA REGIONAL DE CUNDINAMARCA,Area Operativa 11 - Cundinamarca-Amazonas,Bogota,"Bogota, D.C",1960-02-15,,PRECIPITACION,PTPM_TT_M,Precipitación total mensual,Mensual,1991-01-01,93.4,50,,900,26.476257,chirps-v2.0.1991.01.tif
91372,21206190,UNIV PEDAGOGICA [21206190],4.666666667,-74.06666667,2570,Climática Ordinaria,INSTITUTO DE HIDROLOGIA METEOROLOGIA Y ESTUDIOS AMBIENTALES,Area Operativa 11 - Cundinamarca-Amazonas,Bogota,"Bogota, D.C",1986-11-15,2008-12-10 00:00:00,PRECIPITACION,PTPM_TT_M,Precipitación total mensual,Mensual,1991-01-01,111.2,4,,900,17.97769,chirps-v2.0.1991.01.tif
91506,21205012,UNIVERSIDAD NACIONAL  - AUT [21205012],4.63723,-74.08892,2556,Climática Principal,INSTITUTO DE HIDROLOGIA METEOROLOGIA Y ESTUDIOS AMBIENTALES,Area Operativa 11 - Cundinamarca-Amazonas,Bogota,"Bogota, D.C",2004-08-19,,PRECIPITACION,PTPM_TT_M,Precipitación total mensual,Mensual,1991-01-01,66.5,50,,900,22.000683,chirps-v2.0.1991.01.tif
92138,21206230,VEGAS LAS HACIENDA [21206230],4.661666667,-74.15141944,2543,Climática Ordinaria,INSTITUTO DE HIDROLOGIA METEOROLOGIA Y ESTUDIOS AMBIENTALES,Area Operativa 11 - Cundinamarca-Amazonas,Bogota,"Bogota, D.C",1987-08-15,2011-05-10 00:00:00,PRECIPITACION,PTPM_TT_M,Precipitación total mensual,Mensual,1991-01-01,11.0,50,,900,30.269333,chirps-v2.0.1991.01.tif
92596,21205580,VENADO ORO VIVERO [21205580],4.598361111,-74.06155556,2725,Climática Ordinaria,INSTITUTO DE HIDROLOGIA METEOROLOGIA Y ESTUDIOS AMBIENTALES,Area Operativa 11 - Cundinamarca-Amazonas,Bogota,"Bogota, D.C",1965-08-15,,PRECIPITACION,PTPM_TT_M,Precipitación total mensual,Mensual,1991-01-01,87.4,4,,900,27.532438,chirps-v2.0.1991.01.tif
93462,21200240,VERJON EL  [21200240],4.583333333,-74.01666667,3250,Pluviométrica,EMPRESA DE ACUEDUCTO Y ALCANTARILLADO DE BOGOTA E.S.P,Area Operativa 11 - Cundinamarca-Amazonas,Bogota,"Bogota, D.C",1946-02-15,,PRECIPITACION,PTPM_TT_M,Precipitación total mensual,Mensual,1991-01-01,19.3,50,,900,25.672138,chirps-v2.0.1991.01.tif
94623,21205240,VITELMA  [21205240],4.566666667,-74.06666667,2682,Climática Ordinaria,EMPRESA DE ACUEDUCTO Y ALCANTARILLADO DE BOGOTA E.S.P,Area Operativa 11 - Cundinamarca-Amazonas,Bogota,"Bogota, D.C",1941-05-15,,PRECIPITACION,PTPM_TT_M,Precipitación total mensual,Mensual,1991-01-01,28.8,50,,900,27.532438,chirps-v2.0.1991.01.tif
94879,35030010,EL CALVARIO [35030010],4.35259,-73.71319,1902,Pluviográfica,INSTITUTO DE HIDROLOGIA METEOROLOGIA Y ESTUDIOS AMBIENTALES,Area Operativa 03 - Meta-Guaviare-Guainía,Meta,El Calvario,1968-10-15,,PRECIPITACION,PTPM_TT_M,Precipitación total mensual,Mensual,1991-01-01,7.0,50,,1200,22.33683,chirps-v2.0.1991.01.tif
95477,35030020,MONFORT [35030020],4.310083333,-73.64802778,1100,Pluviométrica,INSTITUTO DE HIDROLOGIA METEOROLOGIA Y ESTUDIOS AMBIENTALES,Area Operativa 03 - Meta-Guaviare-Guainía,Meta,El Calvario,1968-08-15,,PRECIPITACION,PTPM_TT_M,Precipitación total mensual,Mensual,1991-01-01,77.0,50,,1200,38.79229,chirps-v2.0.1991.01.tif
96213,21185040,AEROPUERTO SANTIAGO VILA [21185040],4.275444444,-74.798,305,Climática Principal,INSTITUTO DE HIDROLOGIA METEOROLOGIA Y ESTUDIOS AMBIENTALES,Area Operativa 10 - Tolima,Tolima,Flandes,1951-01-15,,PRECIPITACION,PTPM_TT_M,Precipitación total mensual,Mensual,1991-01-01,54.8,50,,1200,51.23149,chirps-v2.0.1991.01.tif
96677,21250610,ALSACIA [21250610],4.85,-74.78333333,310,Pluviométrica,INSTITUTO DE HIDROLOGIA METEOROLOGIA Y ESTUDIOS AMBIENTALES,Area Operativa 10 - Tolima,Tolima,Ambalema,1983-07-15,2002-02-15 00:00:00,PRECIPITACION,PTPM_TT_M,Precipitación total mensual,Mensual,1991-01-01,0.0,50,,900,25.934776,chirps-v2.0.1991.01.tif
96902,21195080,BASE AEREA MELGAR [21195080],4.212222222,-74.63683333,319,Climática Ordinaria,INSTITUTO DE HIDROLOGIA METEOROLOGIA Y ESTUDIOS AMBIENTALES,Area Operativa 10 - Tolima,Tolima,Melgar,1973-03-15,2014-08-28 00:00:00,PRECIPITACION,PTPM_TT_M,Precipitación total mensual,Mensual,1991-01-01,49.5,50,,900,66.41136,chirps-v2.0.1991.01.tif
97214,21250590,BOCATOMA C CENTRAL [21250590],4.783333333,-74.78333333,310,Pluviométrica,INSTITUTO DE HIDROLOGIA METEOROLOGIA Y ESTUDIOS AMBIENTALES,Area Operativa 10 - Tolima,Tolima,Ambalema,1983-07-15,2002-02-15 00:00:00,PRECIPITACION,PTPM_TT_M,Precipitación total mensual,Mensual,1991-01-01,0.0,50,,900,19.25834,chirps-v2.0.1991.01.tif
97464,21250540,BOCATOMA C NORTE [21250540],4.783333333,-74.8,340,Pluviométrica,INSTITUTO DE HIDROLOGIA METEOROLOGIA Y ESTUDIOS AMBIENTALES,Area Operativa 10 - Tolima,Tolima,Ambalema,1983-07-15,2002-02-15 00:00:00,PRECIPITACION,PTPM_TT_M,Precipitación total mensual,Mensual,1991-01-01,0.0,50,,900,24.236584,chirps-v2.0.1991.01.tif
97695,21250580,BOQUERON [21250580],4.8,-74.83333333,405,Pluviométrica,INSTITUTO DE HIDROLOGIA METEOROLOGIA Y ESTUDIOS AMBIENTALES,Area Operativa 10 - Tolima,Tolima,Ambalema,1983-07-15,2002-02-15 00:00:00,PRECIPITACION,PTPM_TT_M,Precipitación total mensual,Mensual,1991-01-01,14.0,50,,900,24.326601,chirps-v2.0.1991.01.tif
98107,21250430,CAMPAMENTO AMBALEM [21250430],4.783333333,-74.76666667,241,Pluviométrica,INSTITUTO DE HIDROLOGIA METEOROLOGIA Y ESTUDIOS AMBIENTALES,Area Operativa 10 - Tolima,Tolima,Ambalema,1968-07-15,2002-02-15 00:00:00,PRECIPITACION,PTPM_TT_M,Precipitación total mensual,Mensual,1991-01-01,23.9,50,,900,19.25834,chirps-v2.0.1991.01.tif
98575,21170020,DOS AGUAS LAS [21170020],4.258277778,-74.78361111,3394,Pluviométrica,INSTITUTO DE HIDROLOGIA METEOROLOGIA Y ESTUDIOS AMBIENTALES,Area Operativa 10 - Tolima,Tolima,Suárez,1951-01-15,,PRECIPITACION,PTPM_TT_M,Precipitación total mensual,Mensual,1991-01-01,22.8,50,,1200,51.23149,chirps-v2.0.1991.01.tif
99199,23025020,ESPERANZA LA [23025020],5.262638889,-74.72913889,208,Climática Ordinaria,INSTITUTO DE HIDROLOGIA METEOROLOGIA Y ESTUDIOS AMBIENTALES,Area Operativa 10 - Tolima,Tolima,Honda,1970-10-15,2016-01-06 00:00:00,PRECIPITACION,PTPM_TT_M,Precipitación total mensual,Mensual,1991-01-01,5.8,50,,900,53.431633,chirps-v2.0.1991.01.tif
99569,21250570,IGUACITOS [21250570],4.85,-74.85,375,Pluviométrica,INSTITUTO DE HIDROLOGIA METEOROLOGIA Y ESTUDIOS AMBIENTALES,Area Operativa 10 - Tolima,Tolima,Lérida,1983-07-15,2002-02-15 00:00:00,PRECIPITACION,PTPM_TT_M,Precipitación total mensual,Mensual,1991-01-01,43.5,50,,900,33.55188,chirps-v2.0.1991.01.tif
99758,23010140,MESA LA  [23010140],5.183333333,-74.88333333,1200,Pluviométrica,FEDERACION NACIONAL DE CAFETEROS,Area Operativa 10 - Tolima,Tolima,Mariquita,1991-01-15,,PRECIPITACION,PTPM_TT_M,Precipitación total mensual,Mensual,1991-01-01,0.0,50,,900,90.39632,chirps-v2.0.1991.01.tif
100011,21190300,SALERO EL [21190300],4.234527778,-74.60663889,650,Pluviométrica,INSTITUTO DE HIDROLOGIA METEOROLOGIA Y ESTUDIOS AMBIENTALES,Area Operativa 10 - Tolima,Tolima,Melgar,1971-11-15,2014-08-28 00:00:00,PRECIPITACION,PTPM_TT_M,Precipitación total mensual,Mensual,1991-01-01,20.0,4,,900,66.41136,chirps-v2.0.1991.01.tif
100504,21255080,SALTO EL [21255080],4.78375,-74.76794444,1139,Climática Principal,INSTITUTO DE HIDROLOGIA METEOROLOGIA Y ESTUDIOS AMBIENTALES,Area Operativa 10 - Tolima,Tolima,Ambalema,1968-11-15,,PRECIPITACION,PTPM_TT_M,Precipitación total mensual,Mensual,1991-01-01,0.0,50,,900,19.25834,chirps-v2.0.1991.01.tif
100875,23060260,CHILAGUA FINCA [23060260],5.064638889,-74.38202778,1500,Pluviométrica,INSTITUTO DE HIDROLOGIA METEOROLOGIA Y ESTUDIOS AMBIENTALES,Area Operativa 11 - Cundinamarca-Amazonas,Cundinamarca,Nocaima,1987-12-15,,PRECIPITACION,PTPM_TT_M,Precipitación total mensual,Mensual,1991-01-01,68.7,50,,900,72.66296,chirps-v2.0.1991.01.tif
102559,35020240,CHOACHI  [35020240],4.533333333,-73.93333333,1950,Pluviográfica,EMPRESA DE ACUEDUCTO Y ALCANTARILLADO DE BOGOTA E.S.P,Area Operativa 11 - Cundinamarca-Amazonas,Cundinamarca,Choachí,1947-08-15,,PRECIPITACION,PTPM_TT_M,Precipitación total mensual,Mensual,1991-01-01,9.4,50,,900,24.269382,chirps-v2.0.1991.01.tif
102912,35020280,CHOACHI [35020280],4.522916667,-73.92658333,1950,Pluviométrica,INSTITUTO DE HIDROLOGIA METEOROLOGIA Y ESTUDIOS AMBIENTALES,Area Operativa 11 - Cundinamarca-Amazonas,Cundinamarca,Choachí,1981-11-15,,PRECIPITACION,PTPM_TT_M,Precipitación total mensual,Mensual,1991-01-01,14.1,50,,900,24.269382,chirps-v2.0.1991.01.tif
103774,35030140,CHUZA MONTERREDO  [35030140],4.616666667,-73.71666667,3100,Pluviométrica,EMPRESA DE ACUEDUCTO Y ALCANTARILLADO DE BOGOTA E.S.P,Area Operativa 11 - Cundinamarca-Amazonas,Cundinamarca,Fómeque,1966-11-15,,PRECIPITACION,PTPM_TT_M,Precipitación total mensual,Mensual,1991-01-01,12.9,50,,900,29.677732,chirps-v2.0.1991.01.tif
104044,35060210,CLARAVAL AUT [35060210],4.65025,-73.64144444,2100,Climática Principal,INSTITUTO DE HIDROLOGIA METEOROLOGIA Y ESTUDIOS AMBIENTALES,Area Operativa 11 - Cundinamarca-Amazonas,Cundinamarca,Junín,1972-02-15,,PRECIPITACION,PTPM_TT_M,Precipitación total mensual,Mensual,1991-01-01,4.4,50,,900,20.756548,chirps-v2.0.1991.01.tif
104887,21201070,CORAZON EL [21201070],4.865361111,-74.28941667,2845,Pluviométrica,INSTITUTO DE HIDROLOGIA METEOROLOGIA Y ESTUDIOS AMBIENTALES,Area Operativa 11 - Cundinamarca-Amazonas,Cundinamarca,Facatativá,1974-07-15,,PRECIPITACION,PTPM_TT_M,Precipitación total mensual,Mensual,1991-01-01,39.3,50,,900,31.260668,chirps-v2.0.1991.01.tif
105520,35030120,CUCHILLA GOLILLAS  [35030120],4.566666667,-73.73333333,3350,Pluviométrica,EMPRESA DE ACUEDUCTO Y ALCANTARILLADO DE BOGOTA E.S.P,Area Operativa 11 - Cundinamarca-Amazonas,Cundinamarca,Fómeque,1969-08-15,,PRECIPITACION,PTPM_TT_M,Precipitación total mensual,Mensual,1991-01-01,16.2,4,,900,29.492035,chirps-v2.0.1991.01.tif
106081,24010140,CUCUNUBA [24010140],5.21957,-73.78229,2818,Pluviométrica,INSTITUTO DE HIDROLOGIA METEOROLOGIA Y ESTUDIOS AMBIENTALES,Area Operativa 11 - Cundinamarca-Amazonas,Cundinamarca,Cucunubá,1958-01-15,2019-11-13 11:27:00,PRECIPITACION,PTPM_TT_M,Precipitación total mensual,Mensual,1991-01-01,10.6,50,,900,11.666884,chirps-v2.0.1991.01.tif
106468,24011080,CUCUNUBA1 [24011080],5.25,-73.77,3,Pluviométrica,INSTITUTO DE HIDROLOGIA METEOROLOGIA Y ESTUDIOS AMBIENTALES,Area Operativa 11 - Cundinamarca-Amazonas,Cundinamarca,Cucunubá,1987-05-15,,PRECIPITACION,PTPM_TT_M,Precipitación total mensual,Mensual,1991-01-01,20.8,50,,900,13.323338,chirps-v2.0.1991.01.tif
107155,35040010,EL RETIRO [35040010],4.338722222,-73.54652778,870,Pluviométrica,INSTITUTO DE HIDROLOGIA METEOROLOGIA Y ESTUDIOS AMBIENTALES,Area Operativa 03 - Meta-Guaviare-Guainía,Cundinamarca,Medina,1968-08-15,,PRECIPITACION,PTPM_TT_M,Precipitación total mensual,Mensual,1991-01-01,106.0,50,,1200,44.774616,chirps-v2.0.1991.01.tif
107818,24010390,EL TRIANGULO  - AUT  [24010390],5.305305556,-73.61930556,2879,Pluviográfica,CORPORACION AUTONOMA REGIONAL DE CUNDINAMARCA,Area Operativa 11 - Cundinamarca-Amazonas,Cundinamarca,Lenguazaque,1963-01-15,,PRECIPITACION,PTPM_TT_M,Precipitación total mensual,Mensual,1991-01-01,0.0,50,,900,13.608489,chirps-v2.0.1991.01.tif
109664,35060100,ESCUELA TENA [35060100],4.712694444,-73.52069444,1650,Pluviográfica,INSTITUTO DE HIDROLOGIA METEOROLOGIA Y ESTUDIOS AMBIENTALES,Area Operativa 11 - Cundinamarca-Amazonas,Cundinamarca,Gachalá,1972-08-15,,PRECIPITACION,PTPM_TT_M,Precipitación total mensual,Mensual,1991-01-01,4.9,50,,900,19.763865,chirps-v2.0.1991.01.tif
110245,21201140,ESPERANZA LA [21201140],4.802166667,-74.17997222,2555,Pluviométrica,INSTITUTO DE HIDROLOGIA METEOROLOGIA Y ESTUDIOS AMBIENTALES,Area Operativa 11 - Cundinamarca-Amazonas,Cundinamarca,Tenjo,1974-07-15,,PRECIPITACION,PTPM_TT_M,Precipitación total mensual,Mensual,1991-01-01,9.2,50,,900,35.448067,chirps-v2.0.1991.01.tif
110672,35070480,ESPERANZA LA [35070480],5.0100278,-73.539444444,1854,Pluviográfica,INSTITUTO DE HIDROLOGIA METEOROLOGIA Y ESTUDIOS AMBIENTALES,Area Operativa 06 - Boyacá-Casanare-Vichada,Cundinamarca,Manta,1982-08-15,,PRECIPITACION,PTPM_TT_M,Precipitación total mensual,Mensual,1991-01-01,3.2,50,,900,12.357916,chirps-v2.0.1991.01.tif
111727,23060320,FLORIDA LA  [23060320],5.083333333,-74.3,1400,Pluviométrica,FEDERACION NACIONAL DE CAFETEROS,Area Operativa 11 - Cundinamarca-Amazonas,Cundinamarca,Vergara,1988-01-15,,PRECIPITACION,PTPM_TT_M,Precipitación total mensual,Mensual,1991-01-01,0.0,50,,900,77.70519,chirps-v2.0.1991.01.tif
112010,21205670,FLORIDA LA AUT [21205670],4.770888889,-74.43763889,1915,Climática Principal,INSTITUTO DE HIDROLOGIA METEOROLOGIA Y ESTUDIOS AMBIENTALES,Area Operativa 11 - Cundinamarca-Amazonas,Cundinamarca,Anolaima,1970-11-15,,PRECIPITACION,PTPM_TT_M,Precipitación total mensual,Mensual,1991-01-01,21.5,50,,900,53.958225,chirps-v2.0.1991.01.tif
112488,35020290,FOMEQUE [35020290],4.486527778,-73.89041667,1900,Pluviométrica,INSTITUTO DE HIDROLOGIA METEOROLOGIA Y ESTUDIOS AMBIENTALES,Area Operativa 11 - Cundinamarca-Amazonas,Cundinamarca,Fómeque,1981-11-15,,PRECIPITACION,PTPM_TT_M,Precipitación total mensual,Mensual,1991-01-01,0.0,50,,900,20.484646,chirps-v2.0.1991.01.tif
113167,21201660,FUTE  [21201660],4.6,-74.28333333,2607,Pluviográfica,CORPORACION AUTONOMA REGIONAL DE CUNDINAMARCA,Area Operativa 11 - Cundinamarca-Amazonas,Cundinamarca,Soacha,1959-09-15,,PRECIPITACION,PTPM_TT_M,Precipitación total mensual,Mensual,1991-01-01,9.2,50,,900,34.578636,chirps-v2.0.1991.01.tif
113754,35060090,GACHALA [35060090],4.690527778,-73.52291667,1733,Pluviométrica,INSTITUTO DE HIDROLOGIA METEOROLOGIA Y ESTUDIOS AMBIENTALES,Area Operativa 11 - Cundinamarca-Amazonas,Cundinamarca,Gachalá,1962-04-15,,PRECIPITACION,PTPM_TT_M,Precipitación total mensual,Mensual,1991-01-01,9.8,50,,900,20.918646,chirps-v2.0.1991.01.tif
114589,35065010,GACHETA [35065010],4.830388889,-73.64647222,1752,Climática Ordinaria,INSTITUTO DE HIDROLOGIA METEOROLOGIA Y ESTUDIOS AMBIENTALES,Area Operativa 11 - Cundinamarca-Amazonas,Cundinamarca,Gachetá,1972-09-15,,PRECIPITACION,PTPM_TT_M,Precipitación total mensual,Mensual,1991-01-01,5.2,50,,900,19.620785,chirps-v2.0.1991.01.tif
115155,35060240,GAMA [35060240],4.764277778,-73.60991667,2210,Pluviométrica,INSTITUTO DE HIDROLOGIA METEOROLOGIA Y ESTUDIOS AMBIENTALES,Area Operativa 11 - Cundinamarca-Amazonas,Cundinamarca,Gama,1972-08-15,,PRECIPITACION,PTPM_TT_M,Precipitación total mensual,Mensual,1991-01-01,0.0,50,,900,16.843998,chirps-v2.0.1991.01.tif
116565,21201180,GUANQUICA [21201180],5.184277778,-73.941111111,3,Pluviométrica,INSTITUTO DE HIDROLOGIA METEOROLOGIA Y ESTUDIOS AMBIENTALES,Area Operativa 11 - Cundinamarca-Amazonas,Cundinamarca,Tausa,1954-12-15,,PRECIPITACION,PTPM_TT_M,Precipitación total mensual,Mensual,1991-01-01,3.0,50,,900,15.4274235,chirps-v2.0.1991.01.tif
117323,21200600,GUARANI EL PENON  [21200600],4.433333333,-74.3,2800,Pluviográfica,CORPORACION AUTONOMA REGIONAL DE CUNDINAMARCA,Area Operativa 11 - Cundinamarca-Amazonas,Cundinamarca,Sibaté,1959-09-15,,PRECIPITACION,PTPM_TT_M,Precipitación total mensual,Mensual,1991-01-01,42.8,50,,900,38.228127,chirps-v2.0.1991.01.tif
117749,21205700,GUASCA [21205700],4.879861111,-73.86811111,2750,Climática Ordinaria,INSTITUTO DE HIDROLOGIA METEOROLOGIA Y ESTUDIOS AMBIENTALES,Area Operativa 11 - Cundinamarca-Amazonas,Cundinamarca,Guasca,1974-07-15,,PRECIPITACION,PTPM_TT_M,Precipitación total mensual,Mensual,1991-01-01,35.6,50,,900,23.669914,chirps-v2.0.1991.01.tif
118188,35020300,GUTIERREZ [35020300],4.253916667,-74.00269444,2300,Climática Principal,INSTITUTO DE HIDROLOGIA METEOROLOGIA Y ESTUDIOS AMBIENTALES,Area Operativa 11 - Cundinamarca-Amazonas,Cundinamarca,Gutiérrez,1984-07-15,,PRECIPITACION,PTPM_TT_M,Precipitación total mensual,Mensual,1991-01-01,0.6,50,,900,17.160927,chirps-v2.0.1991.01.tif
120789,21201210,HATO EL [21201210],4.866388889,-74.15386111,2575,Pluviométrica,INSTITUTO DE HIDROLOGIA METEOROLOGIA Y ESTUDIOS AMBIENTALES,Area Operativa 11 - Cundinamarca-Amazonas,Cundinamarca,Tenjo,1978-06-15,,PRECIPITACION,PTPM_TT_M,Precipitación total mensual,Mensual,1991-01-01,8.9,50,,900,28.750765,chirps-v2.0.1991.01.tif
121237,35070490,HATO GRANDE HACIENDA [35070490],4.959388889,-73.58436111,2346,Pluviométrica,INSTITUTO DE HIDROLOGIA METEOROLOGIA Y ESTUDIOS AMBIENTALES,Area Operativa 11 - Cundinamarca-Amazonas,Cundinamarca,Manta,1982-07-15,,PRECIPITACION,PTPM_TT_M,Precipitación total mensual,Mensual,1991-01-01,1.5,50,,900,15.012726,chirps-v2.0.1991.01.tif
121648,21202160,HIDROPARAISO [21202160],4.5745,-74.407388889,1685,Pluviométrica,INSTITUTO DE HIDROLOGIA METEOROLOGIA Y ESTUDIOS AMBIENTALES,Area Operativa 11 - Cundinamarca-Amazonas,Cundinamarca,El Colegio,1999-01-15,,PRECIPITACION,PTPM_TT_M,Precipitación total mensual,Mensual,1991-01-01,79.0,50,,900,47.079266,chirps-v2.0.1991.01.tif
122025,21206160,HIDROPARAISO [21206160],4.573166667,-74.40483333,1600,Climática Principal,INSTITUTO DE HIDROLOGIA METEOROLOGIA Y ESTUDIOS AMBIENTALES,Area Operativa 11 - Cundinamarca-Amazonas,Cundinamarca,El Colegio,1984-04-15,1998-12-15 00:00:00,PRECIPITACION,PTPM_TT_M,Precipitación total mensual,Mensual,1991-01-01,79.0,50,,900,47.079266,chirps-v2.0.1991.01.tif
122206,21202110,HUERTAS LAS  [21202110],4.583333333,-74.23333333,2572,Pluviográfica,EMPRESA DE ACUEDUCTO Y ALCANTARILLADO DE BOGOTA E.S.P,Area Operativa 11 - Cundinamarca-Amazonas,Cundinamarca,Soacha,1968-11-15,,PRECIPITACION,PTPM_TT_M,Precipitación total mensual,Mensual,1991-01-01,3.1,50,,900,33.889374,chirps-v2.0.1991.01.tif
122609,21201410,ACANDY  [21201410],5.05,-73.88333333,2600,Pluviométrica,CORPORACION AUTONOMA REGIONAL DE CUNDINAMARCA,Area Operativa 11 - Cundinamarca-Amazonas,Cundinamarca,Nemocón,1977-10-15,,PRECIPITACION,PTPM_TT_M,Precipitación total mensual,Mensual,1991-01-01,32.0,50,,900,19.65083,chirps-v2.0.1991.01.tif
122858,21206280,ACAPULCO AUT [21206280],4.64823,-74.32035,2680,Climática Principal,INSTITUTO DE HIDROLOGIA METEOROLOGIA Y ESTUDIOS AMBIENTALES,Area Operativa 11 - Cundinamarca-Amazonas,Cundinamarca,Bojacá,1990-02-15,,PRECIPITACION,PTPM_TT_M,Precipitación total mensual,Mensual,1991-01-01,20.8,50,,900,29.74912,chirps-v2.0.1991.01.tif
123883,21201130,ALMAVIVA  [21201130],4.866666667,-74.01666667,2595,Pluviométrica,CORPORACION AUTONOMA REGIONAL DE CUNDINAMARCA,Area Operativa 11 - Cundinamarca-Amazonas,Cundinamarca,Chía,1973-04-15,,PRECIPITACION,PTPM_TT_M,Precipitación total mensual,Mensual,1991-01-01,1.0,50,,900,38.603424,chirps-v2.0.1991.01.tif
